{
"type": "FeatureCollection",
"name": "Hospitals_in_NJ",
"crs": { "type": "name", "properties": { "name": "urn:ogc:def:crs:OGC:1.3:CRS84" } },
"features": [
{ "type": "Feature", "properties": { "OBJECTID": 1, "NAME": "Bridgeton RiteCare", "ADDRESS": "1000 PEARL STREET", "CITY": "BRIDGETON", "STATE": "NJ", "ZIP": "08302", "TELEPHONE": "856-451-4700", "ALT_PHONE": null, "TYPE": "FEDERALLY QUALIFIED HEALTH CENTERS", "COUNTY": "CUMBERLAND", "COUNTYFIPS": "34011", "ST_FIPS": "34", "COUNTRY": "US", "REGION": "SOUTH", "LATITUDE": 39.45620074, "LONGITUDE": -75.21153984, "STATE_ID": null, "NAICS_CODE": null, "OWNER": null, "TTL_STAFF": null, "BEDS": 9999999, "TRAUMA": null }, "geometry": { "type": "Point", "coordinates": [ -75.211539839511403, 39.456200740381028 ] } },
{ "type": "Feature", "properties": { "OBJECTID": 2, "NAME": "CompleteCare Adult & Women's Medical Professionals", "ADDRESS": "70 COHANSEY ST", "CITY": "BRIDGETON", "STATE": "NJ", "ZIP": "08302", "TELEPHONE": null, "ALT_PHONE": null, "TYPE": "FEDERALLY QUALIFIED HEALTH CENTERS", "COUNTY": "CUMBERLAND", "COUNTYFIPS": "34011", "ST_FIPS": "34", "COUNTRY": "US", "REGION": "SOUTH", "LATITUDE": 39.43046483, "LONGITUDE": -75.23435015, "STATE_ID": null, "NAICS_CODE": null, "OWNER": null, "TTL_STAFF": null, "BEDS": 9999999, "TRAUMA": null }, "geometry": { "type": "Point", "coordinates": [ -75.23435015052101, 39.430464829739805 ] } },
{ "type": "Feature", "properties": { "OBJECTID": 3, "NAME": "CompleteCare Bridgeton - Medical and Dental Health Professionals", "ADDRESS": "105 MANHEIM AVENUE", "CITY": "BRIDGETON", "STATE": "NJ", "ZIP": "08302", "TELEPHONE": "856-451-4700X2320", "ALT_PHONE": null, "TYPE": "FEDERALLY QUALIFIED HEALTH CENTERS", "COUNTY": "CUMBERLAND", "COUNTYFIPS": "34011", "ST_FIPS": "34", "COUNTRY": "US", "REGION": "SOUTH", "LATITUDE": 39.42936727, "LONGITUDE": -75.21815753, "STATE_ID": null, "NAICS_CODE": null, "OWNER": null, "TTL_STAFF": null, "BEDS": 9999999, "TRAUMA": null }, "geometry": { "type": "Point", "coordinates": [ -75.218157529874631, 39.429367269997194 ] } },
{ "type": "Feature", "properties": { "OBJECTID": 4, "NAME": "CompleteCare Health Network", "ADDRESS": "53 SOUTH LAUREL ST", "CITY": "BRIDGETON", "STATE": "NJ", "ZIP": "08302", "TELEPHONE": "856-451-4700", "ALT_PHONE": null, "TYPE": "FEDERALLY QUALIFIED HEALTH CENTERS", "COUNTY": "CUMBERLAND", "COUNTYFIPS": "34011", "ST_FIPS": "34", "COUNTRY": "US", "REGION": "SOUTH", "LATITUDE": 39.42783166, "LONGITUDE": -75.23518974, "STATE_ID": null, "NAICS_CODE": null, "OWNER": null, "TTL_STAFF": null, "BEDS": 9999999, "TRAUMA": null }, "geometry": { "type": "Point", "coordinates": [ -75.235189739941404, 39.427831660326099 ] } },
{ "type": "Feature", "properties": { "OBJECTID": 5, "NAME": "Kids' Corner - Bridgeton Middle School", "ADDRESS": "251 W. BROAD STREET", "CITY": "BRIDGETON", "STATE": "NJ", "ZIP": "08302", "TELEPHONE": "856-453-1233", "ALT_PHONE": null, "TYPE": "FEDERALLY QUALIFIED HEALTH CENTERS", "COUNTY": "CUMBERLAND", "COUNTYFIPS": "34011", "ST_FIPS": "34", "COUNTRY": "US", "REGION": "SOUTH", "LATITUDE": 39.42937396, "LONGITUDE": -75.2447608, "STATE_ID": null, "NAICS_CODE": null, "OWNER": null, "TTL_STAFF": null, "BEDS": 9999999, "TRAUMA": null }, "geometry": { "type": "Point", "coordinates": [ -75.244760800059865, 39.429373960073491 ] } },
{ "type": "Feature", "properties": { "OBJECTID": 6, "NAME": "Teen Center - Bridgeton High School", "ADDRESS": "111 N. WEST AVENUE", "CITY": "BRIDGETON", "STATE": "NJ", "ZIP": "08302", "TELEPHONE": "856-451-4440", "ALT_PHONE": null, "TYPE": "FEDERALLY QUALIFIED HEALTH CENTERS", "COUNTY": "CUMBERLAND", "COUNTYFIPS": "34011", "ST_FIPS": "34", "COUNTRY": "US", "REGION": "SOUTH", "LATITUDE": 39.43598208, "LONGITUDE": -75.24655881, "STATE_ID": null, "NAICS_CODE": null, "OWNER": null, "TTL_STAFF": null, "BEDS": 9999999, "TRAUMA": null }, "geometry": { "type": "Point", "coordinates": [ -75.246558810474127, 39.435982080063837 ] } },
{ "type": "Feature", "properties": { "OBJECTID": 7, "NAME": "Inspira-Bridgeton SED", "ADDRESS": "333 IRVING AVENUE", "CITY": "BRIDGETON", "STATE": "NJ", "ZIP": "08302", "TELEPHONE": "856-575-4500", "ALT_PHONE": null, "TYPE": "SATELLITE EMERGENCY DEPARTMENTS", "COUNTY": "CUMBERLAND", "COUNTYFIPS": "34011", "ST_FIPS": "34", "COUNTRY": "US", "REGION": "SOUTH", "LATITUDE": 39.43613882, "LONGITUDE": -75.22049172, "STATE_ID": null, "NAICS_CODE": null, "OWNER": null, "TTL_STAFF": null, "BEDS": 9999999, "TRAUMA": null }, "geometry": { "type": "Point", "coordinates": [ -75.220491719784306, 39.43613882043887 ] } },
{ "type": "Feature", "properties": { "OBJECTID": 8, "NAME": "Deborah Heart and Lung Center", "ADDRESS": "200 TRENTON ROAD", "CITY": "BROWNS MILLS", "STATE": "NJ", "ZIP": "08015", "TELEPHONE": "609-893-6611", "ALT_PHONE": null, "TYPE": "NON ACUTE CARE HOSPITALS", "COUNTY": "BURLINGTON", "COUNTYFIPS": "34005", "ST_FIPS": "34", "COUNTRY": "US", "REGION": "SOUTH", "LATITUDE": 39.977428, "LONGITUDE": -74.585381, "STATE_ID": null, "NAICS_CODE": null, "OWNER": null, "TTL_STAFF": null, "BEDS": 9999999, "TRAUMA": null }, "geometry": { "type": "Point", "coordinates": [ -74.585380999594022, 39.977428000087137 ] } },
{ "type": "Feature", "properties": { "OBJECTID": 9, "NAME": "Lourdes-Deborah SED", "ADDRESS": "200 TRENTON ROAD", "CITY": "BROWNS MILLS", "STATE": "NJ", "ZIP": "08015", "TELEPHONE": null, "ALT_PHONE": null, "TYPE": "SATELLITE EMERGENCY DEPARTMENTS", "COUNTY": "BURLINGTON", "COUNTYFIPS": "34005", "ST_FIPS": "34", "COUNTRY": "US", "REGION": "SOUTH", "LATITUDE": 39.97489348, "LONGITUDE": -74.58469581, "STATE_ID": null, "NAICS_CODE": null, "OWNER": null, "TTL_STAFF": null, "BEDS": 9999999, "TRAUMA": null }, "geometry": { "type": "Point", "coordinates": [ -74.584695810499539, 39.974893480097862 ] } },
{ "type": "Feature", "properties": { "OBJECTID": 10, "NAME": "Burlington City Center", "ADDRESS": "665 HIGH STREET", "CITY": "BURLINGTON CITY", "STATE": "NJ", "ZIP": "08016", "TELEPHONE": "609-386-0775", "ALT_PHONE": null, "TYPE": "FEDERALLY QUALIFIED HEALTH CENTERS", "COUNTY": "BURLINGTON", "COUNTYFIPS": "34005", "ST_FIPS": "34", "COUNTRY": "US", "REGION": "SOUTH", "LATITUDE": 40.07359197, "LONGITUDE": -74.85630493, "STATE_ID": null, "NAICS_CODE": null, "OWNER": null, "TTL_STAFF": null, "BEDS": 9999999, "TRAUMA": null }, "geometry": { "type": "Point", "coordinates": [ -74.856304930416741, 40.073591969982758 ] } },
{ "type": "Feature", "properties": { "OBJECTID": 11, "NAME": "Cooper Hospital/University Medical Center", "ADDRESS": "ONE COOPER PLAZA", "CITY": "CAMDEN", "STATE": "NJ", "ZIP": "08103", "TELEPHONE": "856-342-2000", "ALT_PHONE": "856-342-2400", "TYPE": "ACUTE CARE HOSPITALS", "COUNTY": "CAMDEN", "COUNTYFIPS": "34007", "ST_FIPS": "34", "COUNTRY": "US", "REGION": "SOUTH", "LATITUDE": 39.94159853, "LONGITUDE": -75.11643371, "STATE_ID": null, "NAICS_CODE": null, "OWNER": null, "TTL_STAFF": null, "BEDS": 491, "TRAUMA": "Level I" }, "geometry": { "type": "Point", "coordinates": [ -75.116433710268851, 39.941598530196664 ] } },
{ "type": "Feature", "properties": { "OBJECTID": 12, "NAME": "Our Lady of Lourdes Medical Center", "ADDRESS": "1600 HADDON AVENUE", "CITY": "CAMDEN", "STATE": "NJ", "ZIP": "08103", "TELEPHONE": "856-757-3500", "ALT_PHONE": null, "TYPE": "ACUTE CARE HOSPITALS", "COUNTY": "CAMDEN", "COUNTYFIPS": "34007", "ST_FIPS": "34", "COUNTRY": "US", "REGION": "SOUTH", "LATITUDE": 39.927891, "LONGITUDE": -75.09504, "STATE_ID": null, "NAICS_CODE": null, "OWNER": null, "TTL_STAFF": null, "BEDS": 410, "TRAUMA": null }, "geometry": { "type": "Point", "coordinates": [ -75.095040000012503, 39.927891000266271 ] } },
{ "type": "Feature", "properties": { "OBJECTID": 13, "NAME": "Antioch Manor", "ADDRESS": "1860 VAN BUREN STREET", "CITY": "CAMDEN", "STATE": "NJ", "ZIP": "08104", "TELEPHONE": "856-964-8028", "ALT_PHONE": null, "TYPE": "FEDERALLY QUALIFIED HEALTH CENTERS", "COUNTY": "CAMDEN", "COUNTYFIPS": "34007", "ST_FIPS": "34", "COUNTRY": "US", "REGION": "SOUTH", "LATITUDE": 39.92124654, "LONGITUDE": -75.11477565, "STATE_ID": null, "NAICS_CODE": null, "OWNER": null, "TTL_STAFF": null, "BEDS": 9999999, "TRAUMA": null }, "geometry": { "type": "Point", "coordinates": [ -75.114775650157128, 39.921246539579336 ] } },
{ "type": "Feature", "properties": { "OBJECTID": 14, "NAME": "CAMCare Gateway Health Center", "ADDRESS": "817 FEDERAL STREET", "CITY": "CAMDEN", "STATE": "NJ", "ZIP": "08103", "TELEPHONE": "856-541-3270", "ALT_PHONE": null, "TYPE": "FEDERALLY QUALIFIED HEALTH CENTERS", "COUNTY": "CAMDEN", "COUNTYFIPS": "34007", "ST_FIPS": "34", "COUNTRY": "US", "REGION": "SOUTH", "LATITUDE": 39.944037, "LONGITUDE": -75.11573967, "STATE_ID": null, "NAICS_CODE": null, "OWNER": null, "TTL_STAFF": null, "BEDS": 9999999, "TRAUMA": null }, "geometry": { "type": "Point", "coordinates": [ -75.115739669971703, 39.944036999959494 ] } },
{ "type": "Feature", "properties": { "OBJECTID": 15, "NAME": "CAMcare - East", "ADDRESS": "2610 FEDERAL STREET", "CITY": "CAMDEN", "STATE": "NJ", "ZIP": "08105", "TELEPHONE": "856-635-0203", "ALT_PHONE": null, "TYPE": "FEDERALLY QUALIFIED HEALTH CENTERS", "COUNTY": "CAMDEN", "COUNTYFIPS": "34007", "ST_FIPS": "34", "COUNTRY": "US", "REGION": "SOUTH", "LATITUDE": 39.94614317, "LONGITUDE": -75.08865495000001, "STATE_ID": null, "NAICS_CODE": null, "OWNER": null, "TTL_STAFF": null, "BEDS": 9999999, "TRAUMA": null }, "geometry": { "type": "Point", "coordinates": [ -75.088654950585962, 39.946143170310428 ] } },
{ "type": "Feature", "properties": { "OBJECTID": 16, "NAME": "CAMcare - North", "ADDRESS": "6TH ST AND ERIE STREETS", "CITY": "CAMDEN", "STATE": "NJ", "ZIP": "08102", "TELEPHONE": "856-757-9180", "ALT_PHONE": null, "TYPE": "FEDERALLY QUALIFIED HEALTH CENTERS", "COUNTY": "CAMDEN", "COUNTYFIPS": "34007", "ST_FIPS": "34", "COUNTRY": "US", "REGION": "SOUTH", "LATITUDE": 39.95451508, "LONGITUDE": -75.11651748, "STATE_ID": null, "NAICS_CODE": null, "OWNER": null, "TTL_STAFF": null, "BEDS": 9999999, "TRAUMA": null }, "geometry": { "type": "Point", "coordinates": [ -75.116517479746406, 39.954515080230664 ] } },
{ "type": "Feature", "properties": { "OBJECTID": 17, "NAME": "CAMcare - South", "ADDRESS": "S 8TH ST AND CARL MILLER BLVD.", "CITY": "CAMDEN", "STATE": "NJ", "ZIP": "08103", "TELEPHONE": "856-541-4926", "ALT_PHONE": null, "TYPE": "FEDERALLY QUALIFIED HEALTH CENTERS", "COUNTY": "CAMDEN", "COUNTYFIPS": "34007", "ST_FIPS": "34", "COUNTRY": "US", "REGION": "SOUTH", "LATITUDE": 39.9313795, "LONGITUDE": -75.1129085, "STATE_ID": null, "NAICS_CODE": null, "OWNER": null, "TTL_STAFF": null, "BEDS": 9999999, "TRAUMA": null }, "geometry": { "type": "Point", "coordinates": [ -75.112908500201939, 39.931379499762848 ] } },
{ "type": "Feature", "properties": { "OBJECTID": 18, "NAME": "CAMcare Odessa Paulk-Jones", "ADDRESS": "813 FERRY AVENUE", "CITY": "CAMDEN", "STATE": "NJ", "ZIP": "08105", "TELEPHONE": "856-541-3270", "ALT_PHONE": null, "TYPE": "FEDERALLY QUALIFIED HEALTH CENTERS", "COUNTY": "CAMDEN", "COUNTYFIPS": "34007", "ST_FIPS": "34", "COUNTRY": "US", "REGION": "SOUTH", "LATITUDE": 39.92094015, "LONGITUDE": -75.11462102, "STATE_ID": null, "NAICS_CODE": null, "OWNER": null, "TTL_STAFF": null, "BEDS": 9999999, "TRAUMA": null }, "geometry": { "type": "Point", "coordinates": [ -75.114621019495559, 39.920940150377348 ] } },
{ "type": "Feature", "properties": { "OBJECTID": 19, "NAME": "Project H.O.P.E Inc at Bergen Lanning Health Center", "ADDRESS": "439 CLINTON ST", "CITY": "CAMDEN", "STATE": "NJ", "ZIP": "08103", "TELEPHONE": "856-968-2320", "ALT_PHONE": null, "TYPE": "FEDERALLY QUALIFIED HEALTH CENTERS", "COUNTY": "CAMDEN", "COUNTYFIPS": "34007", "ST_FIPS": "34", "COUNTRY": "US", "REGION": "SOUTH", "LATITUDE": 39.93857909, "LONGITUDE": -75.12176952, "STATE_ID": null, "NAICS_CODE": null, "OWNER": null, "TTL_STAFF": null, "BEDS": 9999999, "TRAUMA": null }, "geometry": { "type": "Point", "coordinates": [ -75.121769519740312, 39.938579089749894 ] } },
{ "type": "Feature", "properties": { "OBJECTID": 20, "NAME": "Project H.O.P.E. Inc", "ADDRESS": "622 COOPER ST", "CITY": "CAMDEN", "STATE": "NJ", "ZIP": "08102", "TELEPHONE": "856-541-6092", "ALT_PHONE": null, "TYPE": "FEDERALLY QUALIFIED HEALTH CENTERS", "COUNTY": "CAMDEN", "COUNTYFIPS": "34007", "ST_FIPS": "34", "COUNTRY": "US", "REGION": "SOUTH", "LATITUDE": 39.92690074, "LONGITUDE": -75.09550637, "STATE_ID": null, "NAICS_CODE": null, "OWNER": null, "TTL_STAFF": null, "BEDS": 9999999, "TRAUMA": null }, "geometry": { "type": "Point", "coordinates": [ -75.09550636994696, 39.92690074016302 ] } },
{ "type": "Feature", "properties": { "OBJECTID": 21, "NAME": "Project H.O.P.E. Mobile Unit", "ADDRESS": "439 CLINTON STREET", "CITY": "CAMDEN", "STATE": "NJ", "ZIP": "08103", "TELEPHONE": "856-968-2320", "ALT_PHONE": null, "TYPE": "FEDERALLY QUALIFIED HEALTH CENTERS", "COUNTY": "CAMDEN", "COUNTYFIPS": "34007", "ST_FIPS": "34", "COUNTRY": "US", "REGION": "SOUTH", "LATITUDE": 39.93873695, "LONGITUDE": -75.12234043, "STATE_ID": null, "NAICS_CODE": null, "OWNER": null, "TTL_STAFF": null, "BEDS": 9999999, "TRAUMA": null }, "geometry": { "type": "Point", "coordinates": [ -75.122340430129938, 39.938736950209211 ] } },
{ "type": "Feature", "properties": { "OBJECTID": 22, "NAME": "Virtua-Camden SED", "ADDRESS": "1000 ATLANTIC AVENUE", "CITY": "CAMDEN", "STATE": "NJ", "ZIP": "08104", "TELEPHONE": null, "ALT_PHONE": null, "TYPE": "SATELLITE EMERGENCY DEPARTMENTS", "COUNTY": "CAMDEN", "COUNTYFIPS": "34007", "ST_FIPS": "34", "COUNTRY": "US", "REGION": "SOUTH", "LATITUDE": 39.92910966, "LONGITUDE": -75.10820456, "STATE_ID": null, "NAICS_CODE": null, "OWNER": null, "TTL_STAFF": null, "BEDS": 9999999, "TRAUMA": null }, "geometry": { "type": "Point", "coordinates": [ -75.108204559914554, 39.929109659838417 ] } },
{ "type": "Feature", "properties": { "OBJECTID": 23, "NAME": "Cape Regional Medical Center", "ADDRESS": "2 STONE HARBOR BOULEVARD", "CITY": "CAPE MAY COURT HOUSE", "STATE": "NJ", "ZIP": "08210", "TELEPHONE": "609-463-2000", "ALT_PHONE": "609-463-2688", "TYPE": "ACUTE CARE HOSPITALS", "COUNTY": "CAPE MAY", "COUNTYFIPS": "34009", "ST_FIPS": "34", "COUNTRY": "US", "REGION": "SOUTH", "LATITUDE": 39.087614, "LONGITUDE": -74.816829, "STATE_ID": null, "NAICS_CODE": null, "OWNER": null, "TTL_STAFF": null, "BEDS": 242, "TRAUMA": null }, "geometry": { "type": "Point", "coordinates": [ -74.816828999552982, 39.087613999790769 ] } },
{ "type": "Feature", "properties": { "OBJECTID": 24, "NAME": "Cape Community Health Center", "ADDRESS": "410 N. ROUTE 9", "CITY": "CAPE MAY COURT HOUSE", "STATE": "NJ", "ZIP": "08210", "TELEPHONE": "609-465-0258", "ALT_PHONE": null, "TYPE": "FEDERALLY QUALIFIED HEALTH CENTERS", "COUNTY": "CAPE MAY", "COUNTYFIPS": "34009", "ST_FIPS": "34", "COUNTRY": "US", "REGION": "SOUTH", "LATITUDE": 39.08924536, "LONGITUDE": -74.81667441, "STATE_ID": null, "NAICS_CODE": null, "OWNER": null, "TTL_STAFF": null, "BEDS": 9999999, "TRAUMA": null }, "geometry": { "type": "Point", "coordinates": [ -74.816674410027176, 39.089245359996056 ] } },
{ "type": "Feature", "properties": { "OBJECTID": 25, "NAME": "Essex County Hospital Center", "ADDRESS": "204 GROVE AVENUE", "CITY": "CEDAR GROVE", "STATE": "NJ", "ZIP": "07009", "TELEPHONE": "973-571-2801", "ALT_PHONE": null, "TYPE": "NON ACUTE CARE HOSPITALS", "COUNTY": "ESSEX", "COUNTYFIPS": "34013", "ST_FIPS": "34", "COUNTRY": "US", "REGION": "NORTH EAST", "LATITUDE": 40.84944285, "LONGITUDE": -74.23730826000001, "STATE_ID": null, "NAICS_CODE": null, "OWNER": null, "TTL_STAFF": null, "BEDS": 9999999, "TRAUMA": null }, "geometry": { "type": "Point", "coordinates": [ -74.237308259668509, 40.849442849755334 ] } },
{ "type": "Feature", "properties": { "OBJECTID": 26, "NAME": "Kennedy Memorial Hospitals UMC Cherry Hill", "ADDRESS": "2201 CHAPEL AVENUE WEST", "CITY": "CHERRY HILL", "STATE": "NJ", "ZIP": "08002", "TELEPHONE": "856-488-6500", "ALT_PHONE": "856-488-6816", "TYPE": "ACUTE CARE HOSPITALS", "COUNTY": "CAMDEN", "COUNTYFIPS": "34007", "ST_FIPS": "34", "COUNTRY": "US", "REGION": "SOUTH", "LATITUDE": 39.92805828, "LONGITUDE": -75.0161135, "STATE_ID": null, "NAICS_CODE": null, "OWNER": null, "TTL_STAFF": null, "BEDS": 229, "TRAUMA": null }, "geometry": { "type": "Point", "coordinates": [ -75.016113500172452, 39.928058280312818 ] } },
{ "type": "Feature", "properties": { "OBJECTID": 27, "NAME": "Kessler Institute for Rehabilitation - Welkind Facility", "ADDRESS": "201 PLEASANT HILL ROAD", "CITY": "CHESTER", "STATE": "NJ", "ZIP": "07930", "TELEPHONE": "973-252-6300", "ALT_PHONE": "973-252-6367", "TYPE": "NON ACUTE CARE HOSPITALS", "COUNTY": "MORRIS", "COUNTYFIPS": "34027", "ST_FIPS": "34", "COUNTRY": "US", "REGION": "NORTH WEST", "LATITUDE": 40.8194175, "LONGITUDE": -74.68560172, "STATE_ID": null, "NAICS_CODE": null, "OWNER": null, "TTL_STAFF": null, "BEDS": 9999999, "TRAUMA": null }, "geometry": { "type": "Point", "coordinates": [ -74.685601719463165, 40.819417500429381 ] } },
{ "type": "Feature", "properties": { "OBJECTID": 28, "NAME": "CAMcare Clementon", "ADDRESS": "121 WHITEHORSE PIKE", "CITY": "CLEMENTON", "STATE": "NJ", "ZIP": "08021", "TELEPHONE": "856-627-7701", "ALT_PHONE": null, "TYPE": "FEDERALLY QUALIFIED HEALTH CENTERS", "COUNTY": "CAMDEN", "COUNTYFIPS": "34007", "ST_FIPS": "34", "COUNTRY": "US", "REGION": "SOUTH", "LATITUDE": 39.81166378, "LONGITUDE": -74.98371369, "STATE_ID": null, "NAICS_CODE": null, "OWNER": null, "TTL_STAFF": null, "BEDS": 9999999, "TRAUMA": null }, "geometry": { "type": "Point", "coordinates": [ -74.983713689637952, 39.811663780360469 ] } },
{ "type": "Feature", "properties": { "OBJECTID": 29, "NAME": "Saint Clare's Hospital/Denville", "ADDRESS": "25 POCONO ROAD", "CITY": "DENVILLE", "STATE": "NJ", "ZIP": "07834-2995", "TELEPHONE": "973-625-6000", "ALT_PHONE": "973-983-2233", "TYPE": "ACUTE CARE HOSPITALS", "COUNTY": "MORRIS", "COUNTYFIPS": "34027", "ST_FIPS": "34", "COUNTRY": "US", "REGION": "NORTH WEST", "LATITUDE": 40.894982, "LONGITUDE": -74.46532, "STATE_ID": null, "NAICS_CODE": null, "OWNER": null, "TTL_STAFF": null, "BEDS": 9999999, "TRAUMA": null }, "geometry": { "type": "Point", "coordinates": [ -74.465320000051335, 40.894982000234918 ] } },
{ "type": "Feature", "properties": { "OBJECTID": 30, "NAME": "Saint Clare's Hospital/Dover", "ADDRESS": "400 WEST BLACKWELL ST", "CITY": "DOVER", "STATE": "NJ", "ZIP": "07801", "TELEPHONE": "973-989-3000", "ALT_PHONE": "973-989-3200", "TYPE": "ACUTE CARE HOSPITALS", "COUNTY": "MORRIS", "COUNTYFIPS": "34027", "ST_FIPS": "34", "COUNTRY": "US", "REGION": "NORTH WEST", "LATITUDE": 40.885181, "LONGITUDE": -74.576407, "STATE_ID": null, "NAICS_CODE": null, "OWNER": null, "TTL_STAFF": null, "BEDS": 60, "TRAUMA": null }, "geometry": { "type": "Point", "coordinates": [ -74.57640699951385, 40.885180999855208 ] } },
{ "type": "Feature", "properties": { "OBJECTID": 31, "NAME": "Highlands Health Van of Zufall Health Center", "ADDRESS": "17 S WARREN ST", "CITY": "DOVER", "STATE": "NJ", "ZIP": "07801", "TELEPHONE": "908-968-0898", "ALT_PHONE": null, "TYPE": "FEDERALLY QUALIFIED HEALTH CENTERS", "COUNTY": "MORRIS", "COUNTYFIPS": "34027", "ST_FIPS": "34", "COUNTRY": "US", "REGION": "NORTH WEST", "LATITUDE": 40.88386565, "LONGITUDE": -74.55938806, "STATE_ID": null, "NAICS_CODE": null, "OWNER": null, "TTL_STAFF": null, "BEDS": 9999999, "TRAUMA": null }, "geometry": { "type": "Point", "coordinates": [ -74.559388060256325, 40.883865649979292 ] } },
{ "type": "Feature", "properties": { "OBJECTID": 32, "NAME": "Zufall Health Center", "ADDRESS": "18 W. BLACKWELL STREET", "CITY": "DOVER", "STATE": "NJ", "ZIP": "07801", "TELEPHONE": "973-328-9100", "ALT_PHONE": null, "TYPE": "FEDERALLY QUALIFIED HEALTH CENTERS", "COUNTY": "MORRIS", "COUNTYFIPS": "34027", "ST_FIPS": "34", "COUNTRY": "US", "REGION": "NORTH WEST", "LATITUDE": 40.88404306, "LONGITUDE": -74.55928509, "STATE_ID": null, "NAICS_CODE": null, "OWNER": null, "TTL_STAFF": null, "BEDS": 9999999, "TRAUMA": null }, "geometry": { "type": "Point", "coordinates": [ -74.559285089803936, 40.884043059789477 ] } },
{ "type": "Feature", "properties": { "OBJECTID": 33, "NAME": "Kindred Hospital New Jersey - Morris County", "ADDRESS": "400 USHY 46", "CITY": "DOVER", "STATE": "NJ", "ZIP": "07801", "TELEPHONE": null, "ALT_PHONE": null, "TYPE": "NON ACUTE CARE HOSPITALS", "COUNTY": "MORRIS", "COUNTYFIPS": "34027", "ST_FIPS": "34", "COUNTRY": "US", "REGION": "NORTH WEST", "LATITUDE": 40.88640982, "LONGITUDE": -74.57268827, "STATE_ID": null, "NAICS_CODE": null, "OWNER": null, "TTL_STAFF": null, "BEDS": 9999999, "TRAUMA": null }, "geometry": { "type": "Point", "coordinates": [ -74.572688269575551, 40.886409819897352 ] } },
{ "type": "Feature", "properties": { "OBJECTID": 34, "NAME": "East Orange General Hospital", "ADDRESS": "300 CENTRAL AVENUE", "CITY": "EAST ORANGE", "STATE": "NJ", "ZIP": "07018-2897", "TELEPHONE": "973-674-8400", "ALT_PHONE": "973-266-4401", "TYPE": "ACUTE CARE HOSPITALS", "COUNTY": "ESSEX", "COUNTYFIPS": "34013", "ST_FIPS": "34", "COUNTRY": "US", "REGION": "NORTH EAST", "LATITUDE": 40.75448927, "LONGITUDE": -74.21367109000001, "STATE_ID": null, "NAICS_CODE": null, "OWNER": null, "TTL_STAFF": null, "BEDS": 211, "TRAUMA": null }, "geometry": { "type": "Point", "coordinates": [ -74.213671090470058, 40.754489270445539 ] } },
{ "type": "Feature", "properties": { "OBJECTID": 35, "NAME": "VA New Jersey Health Care System (East Orange)", "ADDRESS": "385 TREMONT AVENUE", "CITY": "EAST ORANGE", "STATE": "NJ", "ZIP": "07018-1095", "TELEPHONE": "973-676-1000", "ALT_PHONE": null, "TYPE": "ACUTE CARE HOSPITALS", "COUNTY": "ESSEX", "COUNTYFIPS": "34013", "ST_FIPS": "34", "COUNTRY": "US", "REGION": "NORTH EAST", "LATITUDE": 40.752503, "LONGITUDE": -74.236029, "STATE_ID": null, "NAICS_CODE": null, "OWNER": null, "TTL_STAFF": null, "BEDS": 218, "TRAUMA": null }, "geometry": { "type": "Point", "coordinates": [ -74.236029000561444, 40.752502999624305 ] } },
{ "type": "Feature", "properties": { "OBJECTID": 36, "NAME": "East Orange Primary Care Center", "ADDRESS": "444 WILLIAM STREET", "CITY": "EAST ORANGE", "STATE": "NJ", "ZIP": "07017", "TELEPHONE": "973-675-1900X1003", "ALT_PHONE": "973-675-1900X1064", "TYPE": "FEDERALLY QUALIFIED HEALTH CENTERS", "COUNTY": "ESSEX", "COUNTYFIPS": "34013", "ST_FIPS": "34", "COUNTRY": "US", "REGION": "NORTH EAST", "LATITUDE": 40.7656819, "LONGITUDE": -74.21332738, "STATE_ID": null, "NAICS_CODE": null, "OWNER": null, "TTL_STAFF": null, "BEDS": 9999999, "TRAUMA": null }, "geometry": { "type": "Point", "coordinates": [ -74.213327379678375, 40.765681899919869 ] } },
{ "type": "Feature", "properties": { "OBJECTID": 37, "NAME": "Kessler Institute for Rehabilitation - East Facility", "ADDRESS": "240 CENTRAL AVENUE", "CITY": "EAST ORANGE", "STATE": "NJ", "ZIP": "07018", "TELEPHONE": "973-414-4700", "ALT_PHONE": null, "TYPE": "NON ACUTE CARE HOSPITALS", "COUNTY": "ESSEX", "COUNTYFIPS": "34013", "ST_FIPS": "34", "COUNTRY": "US", "REGION": "NORTH EAST", "LATITUDE": 40.75355621, "LONGITUDE": -74.21187753, "STATE_ID": null, "NAICS_CODE": null, "OWNER": null, "TTL_STAFF": null, "BEDS": 9999999, "TRAUMA": null }, "geometry": { "type": "Point", "coordinates": [ -74.2118775301374, 40.753556209728721 ] } },
{ "type": "Feature", "properties": { "OBJECTID": 38, "NAME": "JFK Medical Center", "ADDRESS": "65 JAMES ST.", "CITY": "EDISON", "STATE": "NJ", "ZIP": "08818", "TELEPHONE": "732-321-7000", "ALT_PHONE": "732-321-7615", "TYPE": "ACUTE CARE HOSPITALS", "COUNTY": "MIDDLESEX", "COUNTYFIPS": "34023", "ST_FIPS": "34", "COUNTRY": "US", "REGION": "CENTRAL EAST", "LATITUDE": 40.556738, "LONGITUDE": -74.350252, "STATE_ID": null, "NAICS_CODE": null, "OWNER": null, "TTL_STAFF": null, "BEDS": 399, "TRAUMA": null }, "geometry": { "type": "Point", "coordinates": [ -74.350252000283831, 40.556738000433469 ] } },
{ "type": "Feature", "properties": { "OBJECTID": 39, "NAME": "Robert Wood Johnson, Jr. Rehabilitation Institute", "ADDRESS": "65 JAMES STREET", "CITY": "EDISON", "STATE": "NJ", "ZIP": "08818", "TELEPHONE": "732-321-7051", "ALT_PHONE": null, "TYPE": "NON ACUTE CARE HOSPITALS", "COUNTY": "MIDDLESEX", "COUNTYFIPS": "34023", "ST_FIPS": "34", "COUNTRY": "US", "REGION": "CENTRAL EAST", "LATITUDE": 40.556738, "LONGITUDE": -74.350252, "STATE_ID": null, "NAICS_CODE": null, "OWNER": null, "TTL_STAFF": null, "BEDS": 9999999, "TRAUMA": null }, "geometry": { "type": "Point", "coordinates": [ -74.350252000283831, 40.556738000433469 ] } },
{ "type": "Feature", "properties": { "OBJECTID": 40, "NAME": "AtlantiCare Health Services", "ADDRESS": "2500 ENGLISH CREEK ROAD", "CITY": "EGG HARBOR TOWNSHIP", "STATE": "NJ", "ZIP": "08234", "TELEPHONE": "609-344-5714", "ALT_PHONE": null, "TYPE": "FEDERALLY QUALIFIED HEALTH CENTERS", "COUNTY": "ATLANTIC", "COUNTYFIPS": "34001", "ST_FIPS": "34", "COUNTRY": "US", "REGION": "SOUTH", "LATITUDE": 39.45519694, "LONGITUDE": -74.59331114, "STATE_ID": null, "NAICS_CODE": null, "OWNER": null, "TTL_STAFF": null, "BEDS": 9999999, "TRAUMA": null }, "geometry": { "type": "Point", "coordinates": [ -74.593311139869044, 39.455196940120956 ] } },
{ "type": "Feature", "properties": { "OBJECTID": 41, "NAME": "Trinitas Regional Medical Center", "ADDRESS": "225 WILLIAMSON STREET", "CITY": "ELIZABETH", "STATE": "NJ", "ZIP": "07202", "TELEPHONE": "908-994-5000", "ALT_PHONE": null, "TYPE": "ACUTE CARE HOSPITALS", "COUNTY": "UNION", "COUNTYFIPS": "34039", "ST_FIPS": "34", "COUNTRY": "US", "REGION": "CENTRAL EAST", "LATITUDE": 40.658962, "LONGITUDE": -74.214889, "STATE_ID": null, "NAICS_CODE": null, "OWNER": null, "TTL_STAFF": null, "BEDS": 325, "TRAUMA": null }, "geometry": { "type": "Point", "coordinates": [ -74.214888999531468, 40.658961999721797 ] } },
{ "type": "Feature", "properties": { "OBJECTID": 42, "NAME": "Visiting Nurse Association of Central Jersey Community Health Center", "ADDRESS": "1301 MAIN STREET", "CITY": "ASBURY PARK", "STATE": "NJ", "ZIP": "07712", "TELEPHONE": "732-774-6333", "ALT_PHONE": "732-776-3921", "TYPE": "FEDERALLY QUALIFIED HEALTH CENTERS", "COUNTY": "MONMOUTH", "COUNTYFIPS": "34025", "ST_FIPS": "34", "COUNTRY": "US", "REGION": "CENTRAL EAST", "LATITUDE": 40.22570808, "LONGITUDE": -74.00985222, "STATE_ID": null, "NAICS_CODE": null, "OWNER": null, "TTL_STAFF": null, "BEDS": 9999999, "TRAUMA": null }, "geometry": { "type": "Point", "coordinates": [ -74.009852219765264, 40.225708080431026 ] } },
{ "type": "Feature", "properties": { "OBJECTID": 43, "NAME": "Atlanticare Regional Medical Center City Division", "ADDRESS": "1925 PACIFIC AVENUE", "CITY": "ATLANTIC CITY", "STATE": "NJ", "ZIP": "08401", "TELEPHONE": "609-345-4000", "ALT_PHONE": null, "TYPE": "ACUTE CARE HOSPITALS", "COUNTY": "ATLANTIC", "COUNTYFIPS": "34001", "ST_FIPS": "34", "COUNTRY": "US", "REGION": "SOUTH", "LATITUDE": 39.358004, "LONGITUDE": -74.433655, "STATE_ID": null, "NAICS_CODE": null, "OWNER": null, "TTL_STAFF": null, "BEDS": 9999999, "TRAUMA": "Level II" }, "geometry": { "type": "Point", "coordinates": [ -74.433655000352246, 39.358004000099058 ] } },
{ "type": "Feature", "properties": { "OBJECTID": 44, "NAME": "AtlantiCare Health Services Healthcare for the Homeless-Atlantic Ave", "ADDRESS": "1401 ATLANTIC AVE SUITE 2600", "CITY": "ATLANTIC CITY", "STATE": "NJ", "ZIP": "08401", "TELEPHONE": "609-572-6055", "ALT_PHONE": null, "TYPE": "FEDERALLY QUALIFIED HEALTH CENTERS", "COUNTY": "ATLANTIC", "COUNTYFIPS": "34001", "ST_FIPS": "34", "COUNTRY": "US", "REGION": "SOUTH", "LATITUDE": 39.36210728, "LONGITUDE": -74.42807055, "STATE_ID": null, "NAICS_CODE": null, "OWNER": null, "TTL_STAFF": null, "BEDS": 9999999, "TRAUMA": null }, "geometry": { "type": "Point", "coordinates": [ -74.42807054954659, 39.362107279912834 ] } },
{ "type": "Feature", "properties": { "OBJECTID": 45, "NAME": "AtlantiCare Health Services Healthcare for the Homeless-Bacharach Blvd", "ADDRESS": "2009 BACHARACH BLVD.", "CITY": "ATLANTIC CITY", "STATE": "NJ", "ZIP": "08401", "TELEPHONE": "609-344-5714", "ALT_PHONE": null, "TYPE": "FEDERALLY QUALIFIED HEALTH CENTERS", "COUNTY": "ATLANTIC", "COUNTYFIPS": "34001", "ST_FIPS": "34", "COUNTRY": "US", "REGION": "SOUTH", "LATITUDE": 39.36112441, "LONGITUDE": -74.43058658, "STATE_ID": null, "NAICS_CODE": null, "OWNER": null, "TTL_STAFF": null, "BEDS": 9999999, "TRAUMA": null }, "geometry": { "type": "Point", "coordinates": [ -74.430586580534765, 39.361124409593003 ] } },
{ "type": "Feature", "properties": { "OBJECTID": 46, "NAME": "AtlantiCare Health Services at Covenant House", "ADDRESS": "929 ATLANTIC AVENUE", "CITY": "ATLANTIC CITY", "STATE": "NJ", "ZIP": "08401", "TELEPHONE": "609-344-5714", "ALT_PHONE": null, "TYPE": "FEDERALLY QUALIFIED HEALTH CENTERS", "COUNTY": "ATLANTIC", "COUNTYFIPS": "34001", "ST_FIPS": "34", "COUNTRY": "US", "REGION": "SOUTH", "LATITUDE": 39.36440604, "LONGITUDE": -74.42238359, "STATE_ID": null, "NAICS_CODE": null, "OWNER": null, "TTL_STAFF": null, "BEDS": 9999999, "TRAUMA": null }, "geometry": { "type": "Point", "coordinates": [ -74.422383590019464, 39.364406040060089 ] } },
{ "type": "Feature", "properties": { "OBJECTID": 47, "NAME": "Atlantic City Center", "ADDRESS": "1301 ATLANTIC AVENUE", "CITY": "ATLANTIC CITY", "STATE": "NJ", "ZIP": "08401", "TELEPHONE": "609-572-0000", "ALT_PHONE": null, "TYPE": "FEDERALLY QUALIFIED HEALTH CENTERS", "COUNTY": "ATLANTIC", "COUNTYFIPS": "34001", "ST_FIPS": "34", "COUNTRY": "US", "REGION": "SOUTH", "LATITUDE": 39.36261117, "LONGITUDE": -74.42681995, "STATE_ID": null, "NAICS_CODE": null, "OWNER": null, "TTL_STAFF": null, "BEDS": 9999999, "TRAUMA": null }, "geometry": { "type": "Point", "coordinates": [ -74.426819949884447, 39.362611169619171 ] } },
{ "type": "Feature", "properties": { "OBJECTID": 48, "NAME": "Women and Children's Health Pavilion", "ADDRESS": "1125 ATLANTIC AVENUE", "CITY": "ATLANTIC CITY", "STATE": "NJ", "ZIP": "08401", "TELEPHONE": "609-348-0066", "ALT_PHONE": null, "TYPE": "FEDERALLY QUALIFIED HEALTH CENTERS", "COUNTY": "ATLANTIC", "COUNTYFIPS": "34001", "ST_FIPS": "34", "COUNTRY": "US", "REGION": "SOUTH", "LATITUDE": 39.36335912, "LONGITUDE": -74.42500432, "STATE_ID": null, "NAICS_CODE": null, "OWNER": null, "TTL_STAFF": null, "BEDS": 9999999, "TRAUMA": null }, "geometry": { "type": "Point", "coordinates": [ -74.425004319561722, 39.363359120348051 ] } },
{ "type": "Feature", "properties": { "OBJECTID": 49, "NAME": "Acuity Specialty Hospital of New Jersey", "ADDRESS": "1925 PACIFIC AVE", "CITY": "ATLANTIC CITY", "STATE": "NJ", "ZIP": "08401", "TELEPHONE": null, "ALT_PHONE": null, "TYPE": "NON ACUTE CARE HOSPITALS", "COUNTY": "ATLANTIC", "COUNTYFIPS": "34001", "ST_FIPS": "34", "COUNTRY": "US", "REGION": "SOUTH", "LATITUDE": 39.3579087, "LONGITUDE": -74.43364813, "STATE_ID": null, "NAICS_CODE": null, "OWNER": null, "TTL_STAFF": null, "BEDS": 9999999, "TRAUMA": null }, "geometry": { "type": "Point", "coordinates": [ -74.433648129454681, 39.357908700401374 ] } },
{ "type": "Feature", "properties": { "OBJECTID": 50, "NAME": "Bayonne Medical Center", "ADDRESS": "29 E 29TH ST", "CITY": "BAYONNE", "STATE": "NJ", "ZIP": "07002-4695", "TELEPHONE": "201-858-5000", "ALT_PHONE": null, "TYPE": "ACUTE CARE HOSPITALS", "COUNTY": "HUDSON", "COUNTYFIPS": "34017", "ST_FIPS": "34", "COUNTRY": "US", "REGION": "NORTH EAST", "LATITUDE": 40.668075, "LONGITUDE": -74.112644, "STATE_ID": null, "NAICS_CODE": null, "OWNER": null, "TTL_STAFF": null, "BEDS": 278, "TRAUMA": null }, "geometry": { "type": "Point", "coordinates": [ -74.11264400054722, 40.668074999963281 ] } },
{ "type": "Feature", "properties": { "OBJECTID": 51, "NAME": "Bayonne Family Medical Center by HAC, Inc", "ADDRESS": "29 EAST 29TH STREET", "CITY": "BAYONNE", "STATE": "NJ", "ZIP": "07002", "TELEPHONE": "201-683-2000", "ALT_PHONE": "201-451-6300", "TYPE": "FEDERALLY QUALIFIED HEALTH CENTERS", "COUNTY": "HUDSON", "COUNTYFIPS": "34017", "ST_FIPS": "34", "COUNTRY": "US", "REGION": "NORTH EAST", "LATITUDE": 40.66844187, "LONGITUDE": -74.11410616000001, "STATE_ID": null, "NAICS_CODE": null, "OWNER": null, "TTL_STAFF": null, "BEDS": 9999999, "TRAUMA": null }, "geometry": { "type": "Point", "coordinates": [ -74.11410616040645, 40.668441869679761 ] } },
{ "type": "Feature", "properties": { "OBJECTID": 52, "NAME": "Carrier Clinic", "ADDRESS": "252 ROUTE 601", "CITY": "BELLE MEAD", "STATE": "NJ", "ZIP": "08502", "TELEPHONE": "908-281-1000", "ALT_PHONE": null, "TYPE": "NON ACUTE CARE HOSPITALS", "COUNTY": "SOMERSET", "COUNTYFIPS": "34035", "ST_FIPS": "34", "COUNTRY": "US", "REGION": "CENTRAL WEST", "LATITUDE": 40.46567627, "LONGITUDE": -74.68256805, "STATE_ID": null, "NAICS_CODE": null, "OWNER": null, "TTL_STAFF": null, "BEDS": 9999999, "TRAUMA": null }, "geometry": { "type": "Point", "coordinates": [ -74.682568049781139, 40.465676270072422 ] } },
{ "type": "Feature", "properties": { "OBJECTID": 53, "NAME": "East Mountain Hospital", "ADDRESS": "40 EAST MOUNTAIN ROAD", "CITY": "BELLE MEAD", "STATE": "NJ", "ZIP": "08502", "TELEPHONE": "908-281-1500", "ALT_PHONE": null, "TYPE": "NON ACUTE CARE HOSPITALS", "COUNTY": "SOMERSET", "COUNTYFIPS": "34035", "ST_FIPS": "34", "COUNTRY": "US", "REGION": "CENTRAL WEST", "LATITUDE": 40.467331, "LONGITUDE": -74.683646, "STATE_ID": null, "NAICS_CODE": null, "OWNER": null, "TTL_STAFF": null, "BEDS": 9999999, "TRAUMA": null }, "geometry": { "type": "Point", "coordinates": [ -74.683646000026542, 40.467330999776905 ] } },
{ "type": "Feature", "properties": { "OBJECTID": 54, "NAME": "Clara Maass Medical Center", "ADDRESS": "ONE CLARA MAASS DRIVE", "CITY": "BELLEVILLE", "STATE": "NJ", "ZIP": "07109", "TELEPHONE": "973-450-2000", "ALT_PHONE": null, "TYPE": "ACUTE CARE HOSPITALS", "COUNTY": "ESSEX", "COUNTYFIPS": "34013", "ST_FIPS": "34", "COUNTRY": "US", "REGION": "NORTH EAST", "LATITUDE": 40.78562401, "LONGITUDE": -74.17599655, "STATE_ID": null, "NAICS_CODE": null, "OWNER": null, "TTL_STAFF": null, "BEDS": 445, "TRAUMA": null }, "geometry": { "type": "Point", "coordinates": [ -74.175996549675318, 40.78562400974463 ] } },
{ "type": "Feature", "properties": { "OBJECTID": 55, "NAME": "Runnells Specialized Hospital of Union County", "ADDRESS": "40 WATCHUNG WAY", "CITY": "BERKELEY HEIGHTS", "STATE": "NJ", "ZIP": "07922", "TELEPHONE": "908-771-5700", "ALT_PHONE": null, "TYPE": "NON ACUTE CARE HOSPITALS", "COUNTY": "UNION", "COUNTYFIPS": "34039", "ST_FIPS": "34", "COUNTRY": "US", "REGION": "CENTRAL EAST", "LATITUDE": 40.66517, "LONGITUDE": -74.421626, "STATE_ID": null, "NAICS_CODE": null, "OWNER": null, "TTL_STAFF": null, "BEDS": 9999999, "TRAUMA": null }, "geometry": { "type": "Point", "coordinates": [ -74.421625999454193, 40.665170000285052 ] } },
{ "type": "Feature", "properties": { "OBJECTID": 56, "NAME": "Virtua-Berlin SED", "ADDRESS": "100 TOWNSEND AVENUE", "CITY": "BERLIN", "STATE": "NJ", "ZIP": "08009", "TELEPHONE": "856-322-3000", "ALT_PHONE": null, "TYPE": "SATELLITE EMERGENCY DEPARTMENTS", "COUNTY": "CAMDEN", "COUNTYFIPS": "34007", "ST_FIPS": "34", "COUNTRY": "US", "REGION": "SOUTH", "LATITUDE": 39.781749, "LONGITUDE": -74.920334, "STATE_ID": null, "NAICS_CODE": null, "OWNER": null, "TTL_STAFF": null, "BEDS": 95, "TRAUMA": null }, "geometry": { "type": "Point", "coordinates": [ -74.920333999959809, 39.781748999633216 ] } },
{ "type": "Feature", "properties": { "OBJECTID": 57, "NAME": "Northbrook Behavioral Health Hospital", "ADDRESS": "425 WOODBURY-TURNERSVILLE ROAD", "CITY": "BLACKWOOD", "STATE": "NJ", "ZIP": "08012", "TELEPHONE": "856-374-6600", "ALT_PHONE": null, "TYPE": "NON ACUTE CARE HOSPITALS", "COUNTY": "CAMDEN", "COUNTYFIPS": "34007", "ST_FIPS": "34", "COUNTRY": "US", "REGION": "SOUTH", "LATITUDE": 39.78940612, "LONGITUDE": -75.07385025000001, "STATE_ID": null, "NAICS_CODE": null, "OWNER": null, "TTL_STAFF": null, "BEDS": 9999999, "TRAUMA": null }, "geometry": { "type": "Point", "coordinates": [ -75.073850250245115, 39.789406120308712 ] } },
{ "type": "Feature", "properties": { "OBJECTID": 58, "NAME": "Saint Clare's Hospital/Boonton", "ADDRESS": "130 POWERVILLE ROAD", "CITY": "BOONTON TOWNSHIP", "STATE": "NJ", "ZIP": "07005", "TELEPHONE": "973-316-1800", "ALT_PHONE": "973-316-1808", "TYPE": "NON ACUTE CARE HOSPITALS", "COUNTY": "MORRIS", "COUNTYFIPS": "34027", "ST_FIPS": "34", "COUNTRY": "US", "REGION": "NORTH WEST", "LATITUDE": 40.909948, "LONGITUDE": -74.425843, "STATE_ID": null, "NAICS_CODE": null, "OWNER": null, "TTL_STAFF": null, "BEDS": 9999999, "TRAUMA": null }, "geometry": { "type": "Point", "coordinates": [ -74.425843000569984, 40.909947999632024 ] } },
{ "type": "Feature", "properties": { "OBJECTID": 59, "NAME": "Ocean Medical Center", "ADDRESS": "425 JACK MARTIN BOULEVARD", "CITY": "BRICK", "STATE": "NJ", "ZIP": "08724", "TELEPHONE": "732-840-2200", "ALT_PHONE": null, "TYPE": "ACUTE CARE HOSPITALS", "COUNTY": "OCEAN", "COUNTYFIPS": "34029", "ST_FIPS": "34", "COUNTRY": "US", "REGION": "CENTRAL EAST", "LATITUDE": 40.07732766, "LONGITUDE": -74.13139458000001, "STATE_ID": null, "NAICS_CODE": null, "OWNER": null, "TTL_STAFF": null, "BEDS": 287, "TRAUMA": null }, "geometry": { "type": "Point", "coordinates": [ -74.131394579471547, 40.077327659697403 ] } },
{ "type": "Feature", "properties": { "OBJECTID": 60, "NAME": "Shore Rehabilitation Institute", "ADDRESS": "425 JACK MARTIN BLVD", "CITY": "BRICK", "STATE": "NJ", "ZIP": "08724", "TELEPHONE": "732-295-6500", "ALT_PHONE": "732-836-4500", "TYPE": "NON ACUTE CARE HOSPITALS", "COUNTY": "OCEAN", "COUNTYFIPS": "34029", "ST_FIPS": "34", "COUNTRY": "US", "REGION": "CENTRAL EAST", "LATITUDE": 40.07723559, "LONGITUDE": -74.13113414, "STATE_ID": null, "NAICS_CODE": null, "OWNER": null, "TTL_STAFF": null, "BEDS": 9999999, "TRAUMA": null }, "geometry": { "type": "Point", "coordinates": [ -74.131134140550117, 40.077235590338361 ] } },
{ "type": "Feature", "properties": { "OBJECTID": 61, "NAME": "Neighborhood Health Center - Elizabeth", "ADDRESS": "184 FIRST STREET, 2ND FLOOR", "CITY": "ELIZABETH", "STATE": "NJ", "ZIP": "07206", "TELEPHONE": "908-355-4459", "ALT_PHONE": null, "TYPE": "FEDERALLY QUALIFIED HEALTH CENTERS", "COUNTY": "UNION", "COUNTYFIPS": "34039", "ST_FIPS": "34", "COUNTRY": "US", "REGION": "CENTRAL EAST", "LATITUDE": 40.64999228, "LONGITUDE": -74.18421281000001, "STATE_ID": null, "NAICS_CODE": null, "OWNER": null, "TTL_STAFF": null, "BEDS": 9999999, "TRAUMA": null }, "geometry": { "type": "Point", "coordinates": [ -74.184212810326585, 40.649992279914116 ] } },
{ "type": "Feature", "properties": { "OBJECTID": 62, "NAME": "Care One at Trinitas", "ADDRESS": "225 WILLIAMSON ST", "CITY": "ELIZABETH", "STATE": "NJ", "ZIP": "07202", "TELEPHONE": null, "ALT_PHONE": null, "TYPE": "NON ACUTE CARE HOSPITALS", "COUNTY": "UNION", "COUNTYFIPS": "34039", "ST_FIPS": "34", "COUNTRY": "US", "REGION": "CENTRAL EAST", "LATITUDE": 40.65911224, "LONGITUDE": -74.21436898, "STATE_ID": null, "NAICS_CODE": null, "OWNER": null, "TTL_STAFF": null, "BEDS": 9999999, "TRAUMA": null }, "geometry": { "type": "Point", "coordinates": [ -74.214368979604387, 40.659112239649673 ] } },
{ "type": "Feature", "properties": { "OBJECTID": 63, "NAME": "Inspira Medical Center Elmer", "ADDRESS": "501 W FRONT STREET", "CITY": "ELMER", "STATE": "NJ", "ZIP": "08318", "TELEPHONE": "856-363-1000", "ALT_PHONE": null, "TYPE": "ACUTE CARE HOSPITALS", "COUNTY": "SALEM", "COUNTYFIPS": "34033", "ST_FIPS": "34", "COUNTRY": "US", "REGION": "SOUTH", "LATITUDE": 39.587796, "LONGITUDE": -75.180757, "STATE_ID": null, "NAICS_CODE": null, "OWNER": null, "TTL_STAFF": null, "BEDS": 91, "TRAUMA": null }, "geometry": { "type": "Point", "coordinates": [ -75.180757000021742, 39.587796000246705 ] } },
{ "type": "Feature", "properties": { "OBJECTID": 64, "NAME": "Englewood Hospital and Medical Center", "ADDRESS": "350 ENGLE STREET", "CITY": "ENGLEWOOD", "STATE": "NJ", "ZIP": "07631", "TELEPHONE": "201-894-3000", "ALT_PHONE": "201-894-3199", "TYPE": "ACUTE CARE HOSPITALS", "COUNTY": "BERGEN", "COUNTYFIPS": "34003", "ST_FIPS": "34", "COUNTRY": "US", "REGION": "NORTH EAST", "LATITUDE": 40.904463, "LONGITUDE": -73.968441, "STATE_ID": null, "NAICS_CODE": null, "OWNER": null, "TTL_STAFF": null, "BEDS": 536, "TRAUMA": null }, "geometry": { "type": "Point", "coordinates": [ -73.96844100015052, 40.904462999588425 ] } },
{ "type": "Feature", "properties": { "OBJECTID": 65, "NAME": "NHCAC Health Center at Englewood", "ADDRESS": "197 SOUTH VAN BRUNT ST", "CITY": "ENGLEWOOD", "STATE": "NJ", "ZIP": "07631", "TELEPHONE": "201-537-4442", "ALT_PHONE": null, "TYPE": "FEDERALLY QUALIFIED HEALTH CENTERS", "COUNTY": "BERGEN", "COUNTYFIPS": "34003", "ST_FIPS": "34", "COUNTRY": "US", "REGION": "NORTH EAST", "LATITUDE": 40.88870769, "LONGITUDE": -73.98106136, "STATE_ID": null, "NAICS_CODE": null, "OWNER": null, "TTL_STAFF": null, "BEDS": 9999999, "TRAUMA": null }, "geometry": { "type": "Point", "coordinates": [ -73.981061359486361, 40.888707689757624 ] } },
{ "type": "Feature", "properties": { "OBJECTID": 66, "NAME": "Hunterdon Medical Center", "ADDRESS": "2100 WESCOTT DRIVE", "CITY": "FLEMINGTON", "STATE": "NJ", "ZIP": "08822", "TELEPHONE": "908-788-6100", "ALT_PHONE": null, "TYPE": "ACUTE CARE HOSPITALS", "COUNTY": "HUNTERDON", "COUNTYFIPS": "34019", "ST_FIPS": "34", "COUNTRY": "US", "REGION": "CENTRAL WEST", "LATITUDE": 40.531429, "LONGITUDE": -74.860798, "STATE_ID": null, "NAICS_CODE": null, "OWNER": null, "TTL_STAFF": null, "BEDS": 178, "TRAUMA": null }, "geometry": { "type": "Point", "coordinates": [ -74.860797999493684, 40.531428999815638 ] } },
{ "type": "Feature", "properties": { "OBJECTID": 67, "NAME": "CentraState Medical Center", "ADDRESS": "901 WEST MAIN STREET", "CITY": "FREEHOLD", "STATE": "NJ", "ZIP": "07728", "TELEPHONE": "732-431-2000", "ALT_PHONE": null, "TYPE": "ACUTE CARE HOSPITALS", "COUNTY": "MONMOUTH", "COUNTYFIPS": "34025", "ST_FIPS": "34", "COUNTRY": "US", "REGION": "CENTRAL EAST", "LATITUDE": 40.237573, "LONGITUDE": -74.309279, "STATE_ID": null, "NAICS_CODE": null, "OWNER": null, "TTL_STAFF": null, "BEDS": 263, "TRAUMA": null }, "geometry": { "type": "Point", "coordinates": [ -74.309278999842206, 40.237572999723312 ] } },
{ "type": "Feature", "properties": { "OBJECTID": 68, "NAME": "NHCAC Garfield", "ADDRESS": "535 MIDLAND AVENUE", "CITY": "GARFIELD", "STATE": "NJ", "ZIP": "07026", "TELEPHONE": "973-340-1182", "ALT_PHONE": null, "TYPE": "FEDERALLY QUALIFIED HEALTH CENTERS", "COUNTY": "BERGEN", "COUNTYFIPS": "34003", "ST_FIPS": "34", "COUNTRY": "US", "REGION": "NORTH EAST", "LATITUDE": 40.88122983, "LONGITUDE": -74.1009518, "STATE_ID": null, "NAICS_CODE": null, "OWNER": null, "TTL_STAFF": null, "BEDS": 9999999, "TRAUMA": null }, "geometry": { "type": "Point", "coordinates": [ -74.100951800538198, 40.881229829618633 ] } },
{ "type": "Feature", "properties": { "OBJECTID": 69, "NAME": "Glassboro Community Health Center", "ADDRESS": "335 DELSEA DRIVE N", "CITY": "GLASSBORO", "STATE": "NJ", "ZIP": "08028", "TELEPHONE": "856-863-5720", "ALT_PHONE": null, "TYPE": "FEDERALLY QUALIFIED HEALTH CENTERS", "COUNTY": "GLOUCESTER", "COUNTYFIPS": "34015", "ST_FIPS": "34", "COUNTRY": "US", "REGION": "SOUTH", "LATITUDE": 39.70864259, "LONGITUDE": -75.10949468, "STATE_ID": null, "NAICS_CODE": null, "OWNER": null, "TTL_STAFF": null, "BEDS": 9999999, "TRAUMA": null }, "geometry": { "type": "Point", "coordinates": [ -75.109494679879504, 39.708642590054609 ] } },
{ "type": "Feature", "properties": { "OBJECTID": 70, "NAME": "Senator Garrett W. Hagedorn Psychiatric Hospital", "ADDRESS": "200 SANATORIUM ROAD", "CITY": "GLEN GARDNER", "STATE": "NJ", "ZIP": "08826", "TELEPHONE": null, "ALT_PHONE": null, "TYPE": "NON ACUTE CARE HOSPITALS", "COUNTY": "HUNTERDON", "COUNTYFIPS": "34019", "ST_FIPS": "34", "COUNTRY": "US", "REGION": "CENTRAL WEST", "LATITUDE": 40.69288755, "LONGITUDE": -74.91910651000001, "STATE_ID": null, "NAICS_CODE": null, "OWNER": null, "TTL_STAFF": null, "BEDS": 9999999, "TRAUMA": null }, "geometry": { "type": "Point", "coordinates": [ -74.919106509837633, 40.692887550201888 ] } },
{ "type": "Feature", "properties": { "OBJECTID": 71, "NAME": "Hackensack University Medical Center", "ADDRESS": "30 PROSPECT AVENUE", "CITY": "HACKENSACK", "STATE": "NJ", "ZIP": "07601", "TELEPHONE": "551-996-2000", "ALT_PHONE": null, "TYPE": "ACUTE CARE HOSPITALS", "COUNTY": "BERGEN", "COUNTYFIPS": "34003", "ST_FIPS": "34", "COUNTRY": "US", "REGION": "NORTH EAST", "LATITUDE": 40.883704, "LONGITUDE": -74.056323, "STATE_ID": null, "NAICS_CODE": null, "OWNER": null, "TTL_STAFF": null, "BEDS": 775, "TRAUMA": "Level II" }, "geometry": { "type": "Point", "coordinates": [ -74.056323000134782, 40.883704000367494 ] } },
{ "type": "Feature", "properties": { "OBJECTID": 72, "NAME": "NHCAC Hackensack", "ADDRESS": "25 EAST SALEM STREET", "CITY": "HACKENSACK", "STATE": "NJ", "ZIP": "07601", "TELEPHONE": "201-996-2121", "ALT_PHONE": null, "TYPE": "FEDERALLY QUALIFIED HEALTH CENTERS", "COUNTY": "BERGEN", "COUNTYFIPS": "34003", "ST_FIPS": "34", "COUNTRY": "US", "REGION": "NORTH EAST", "LATITUDE": 40.88565052, "LONGITUDE": -74.04152412000001, "STATE_ID": null, "NAICS_CODE": null, "OWNER": null, "TTL_STAFF": null, "BEDS": 9999999, "TRAUMA": null }, "geometry": { "type": "Point", "coordinates": [ -74.041524120121508, 40.885650519882908 ] } },
{ "type": "Feature", "properties": { "OBJECTID": 73, "NAME": "Hackettstown Regional Medical Center", "ADDRESS": "651 WILLOW GROVE STREET", "CITY": "HACKETTSTOWN", "STATE": "NJ", "ZIP": "07840-1792", "TELEPHONE": "908-852-5100", "ALT_PHONE": "908-850-6800", "TYPE": "ACUTE CARE HOSPITALS", "COUNTY": "WARREN", "COUNTYFIPS": "34041", "ST_FIPS": "34", "COUNTRY": "US", "REGION": "NORTH WEST", "LATITUDE": 40.86175035, "LONGITUDE": -74.81592619, "STATE_ID": null, "NAICS_CODE": null, "OWNER": null, "TTL_STAFF": null, "BEDS": 111, "TRAUMA": null }, "geometry": { "type": "Point", "coordinates": [ -74.815926190290639, 40.861750350379538 ] } },
{ "type": "Feature", "properties": { "OBJECTID": 74, "NAME": "Zufall Health Center at Hackettstown", "ADDRESS": "653 WILLOW GROVE STREET", "CITY": "HACKETTSTOWN", "STATE": "NJ", "ZIP": "07840", "TELEPHONE": "908-452-5366", "ALT_PHONE": null, "TYPE": "FEDERALLY QUALIFIED HEALTH CENTERS", "COUNTY": "WARREN", "COUNTYFIPS": "34041", "ST_FIPS": "34", "COUNTRY": "US", "REGION": "NORTH WEST", "LATITUDE": 40.86203154, "LONGITUDE": -74.81335394, "STATE_ID": null, "NAICS_CODE": null, "OWNER": null, "TTL_STAFF": null, "BEDS": 9999999, "TRAUMA": null }, "geometry": { "type": "Point", "coordinates": [ -74.813353939902044, 40.862031539945384 ] } },
{ "type": "Feature", "properties": { "OBJECTID": 75, "NAME": "Robert Wood Johnson University Hospital at Hamilton", "ADDRESS": "1 HAMILTON HEALTH PLACE", "CITY": "HAMILTON", "STATE": "NJ", "ZIP": "08690", "TELEPHONE": "609-586-7900", "ALT_PHONE": "609-584-0550", "TYPE": "ACUTE CARE HOSPITALS", "COUNTY": "MERCER", "COUNTYFIPS": "34021", "ST_FIPS": "34", "COUNTRY": "US", "REGION": "CENTRAL WEST", "LATITUDE": 40.21633388, "LONGITUDE": -74.67201575, "STATE_ID": null, "NAICS_CODE": null, "OWNER": null, "TTL_STAFF": null, "BEDS": 280, "TRAUMA": null }, "geometry": { "type": "Point", "coordinates": [ -74.672015750240249, 40.216333880272849 ] } },
{ "type": "Feature", "properties": { "OBJECTID": 76, "NAME": "Hammonton Center", "ADDRESS": "860 S. WHITE HORSE PIKE", "CITY": "HAMMONTON", "STATE": "NJ", "ZIP": "08037", "TELEPHONE": "609-567-0200", "ALT_PHONE": null, "TYPE": "FEDERALLY QUALIFIED HEALTH CENTERS", "COUNTY": "ATLANTIC", "COUNTYFIPS": "34001", "ST_FIPS": "34", "COUNTRY": "US", "REGION": "SOUTH", "LATITUDE": 39.62067509, "LONGITUDE": -74.77440638, "STATE_ID": null, "NAICS_CODE": null, "OWNER": null, "TTL_STAFF": null, "BEDS": 9999999, "TRAUMA": null }, "geometry": { "type": "Point", "coordinates": [ -74.774406380133058, 39.62067509011716 ] } },
{ "type": "Feature", "properties": { "OBJECTID": 77, "NAME": "Hammonton Dental Center", "ADDRESS": "310 BELLEVUE AVENUE", "CITY": "HAMMONTON", "STATE": "NJ", "ZIP": "08037", "TELEPHONE": "609-561-9150", "ALT_PHONE": null, "TYPE": "FEDERALLY QUALIFIED HEALTH CENTERS", "COUNTY": "ATLANTIC", "COUNTYFIPS": "34001", "ST_FIPS": "34", "COUNTRY": "US", "REGION": "SOUTH", "LATITUDE": 39.63739938, "LONGITUDE": -74.80181719, "STATE_ID": null, "NAICS_CODE": null, "OWNER": null, "TTL_STAFF": null, "BEDS": 9999999, "TRAUMA": null }, "geometry": { "type": "Point", "coordinates": [ -74.801817190548917, 39.637399380063542 ] } },
{ "type": "Feature", "properties": { "OBJECTID": 78, "NAME": "Southern Jersey Family Medical Centers", "ADDRESS": "1 WHITE HORSE CENTRE", "CITY": "HAMMONTON", "STATE": "NJ", "ZIP": "08037", "TELEPHONE": "609-567-0434", "ALT_PHONE": null, "TYPE": "FEDERALLY QUALIFIED HEALTH CENTERS", "COUNTY": "ATLANTIC", "COUNTYFIPS": "34001", "ST_FIPS": "34", "COUNTRY": "US", "REGION": "SOUTH", "LATITUDE": 39.62067509, "LONGITUDE": -74.77440638, "STATE_ID": null, "NAICS_CODE": null, "OWNER": null, "TTL_STAFF": null, "BEDS": 9999999, "TRAUMA": null }, "geometry": { "type": "Point", "coordinates": [ -74.774406380133058, 39.62067509011716 ] } },
{ "type": "Feature", "properties": { "OBJECTID": 79, "NAME": "The Mobile Medic", "ADDRESS": "1 WHITE HORSE CENTRE", "CITY": "HAMMONTON", "STATE": "NJ", "ZIP": "08037", "TELEPHONE": "800-486-0131", "ALT_PHONE": null, "TYPE": "FEDERALLY QUALIFIED HEALTH CENTERS", "COUNTY": "ATLANTIC", "COUNTYFIPS": "34001", "ST_FIPS": "34", "COUNTRY": "US", "REGION": "SOUTH", "LATITUDE": 39.62067509, "LONGITUDE": -74.77440638, "STATE_ID": null, "NAICS_CODE": null, "OWNER": null, "TTL_STAFF": null, "BEDS": 9999999, "TRAUMA": null }, "geometry": { "type": "Point", "coordinates": [ -74.774406380133058, 39.62067509011716 ] } },
{ "type": "Feature", "properties": { "OBJECTID": 80, "NAME": "ARMC SED - Kessler", "ADDRESS": "219 N. WHITE HORSE PIKE", "CITY": "HAMMONTON", "STATE": "NJ", "ZIP": "08037-2014", "TELEPHONE": "609-561-1096", "ALT_PHONE": null, "TYPE": "SATELLITE EMERGENCY DEPARTMENTS", "COUNTY": "ATLANTIC", "COUNTYFIPS": "34001", "ST_FIPS": "34", "COUNTRY": "US", "REGION": "SOUTH", "LATITUDE": 39.6323121, "LONGITUDE": -74.77266319, "STATE_ID": null, "NAICS_CODE": null, "OWNER": null, "TTL_STAFF": null, "BEDS": 9999999, "TRAUMA": null }, "geometry": { "type": "Point", "coordinates": [ -74.772663189802927, 39.632312099630354 ] } },
{ "type": "Feature", "properties": { "OBJECTID": 81, "NAME": "Ancora Psychiatric Hospital", "ADDRESS": "301 SPRING GARDEN ROAD", "CITY": "HAMMONTOWN", "STATE": "NJ", "ZIP": "08037", "TELEPHONE": "609-561-1700", "ALT_PHONE": null, "TYPE": "NON ACUTE CARE HOSPITALS", "COUNTY": "ATLANTIC", "COUNTYFIPS": "34001", "ST_FIPS": "34", "COUNTRY": "US", "REGION": "SOUTH", "LATITUDE": 39.68227294, "LONGITUDE": -74.8607057, "STATE_ID": null, "NAICS_CODE": null, "OWNER": null, "TTL_STAFF": null, "BEDS": 9999999, "TRAUMA": null }, "geometry": { "type": "Point", "coordinates": [ -74.860705700023459, 39.682272939933945 ] } },
{ "type": "Feature", "properties": { "OBJECTID": 82, "NAME": "Hoboken University Medical Center", "ADDRESS": "308 WILLOW AVENUE", "CITY": "HOBOKEN", "STATE": "NJ", "ZIP": "07030", "TELEPHONE": "201-418-1000", "ALT_PHONE": "201-418-1900", "TYPE": "ACUTE CARE HOSPITALS", "COUNTY": "HUDSON", "COUNTYFIPS": "34017", "ST_FIPS": "34", "COUNTRY": "US", "REGION": "NORTH EAST", "LATITUDE": 40.74113, "LONGITUDE": -74.033971, "STATE_ID": null, "NAICS_CODE": null, "OWNER": null, "TTL_STAFF": null, "BEDS": 364, "TRAUMA": null }, "geometry": { "type": "Point", "coordinates": [ -74.033970999689558, 40.741129999926329 ] } },
{ "type": "Feature", "properties": { "OBJECTID": 83, "NAME": "NHCAC CHC at Hoboken", "ADDRESS": "124 GRAND STREET", "CITY": "HOBOKEN", "STATE": "NJ", "ZIP": "07030", "TELEPHONE": "201-795-9521", "ALT_PHONE": null, "TYPE": "FEDERALLY QUALIFIED HEALTH CENTERS", "COUNTY": "HUDSON", "COUNTYFIPS": "34017", "ST_FIPS": "34", "COUNTRY": "US", "REGION": "NORTH EAST", "LATITUDE": 40.73873008, "LONGITUDE": -74.03628379, "STATE_ID": null, "NAICS_CODE": null, "OWNER": null, "TTL_STAFF": null, "BEDS": 9999999, "TRAUMA": null }, "geometry": { "type": "Point", "coordinates": [ -74.036283790103624, 40.738730079694051 ] } },
{ "type": "Feature", "properties": { "OBJECTID": 84, "NAME": "Bayshore Community Hospital", "ADDRESS": "727 NORTH BEERS STREET", "CITY": "HOLMDEL", "STATE": "NJ", "ZIP": "07733-1598", "TELEPHONE": "732-739-5900", "ALT_PHONE": null, "TYPE": "ACUTE CARE HOSPITALS", "COUNTY": "MONMOUTH", "COUNTYFIPS": "34025", "ST_FIPS": "34", "COUNTRY": "US", "REGION": "CENTRAL EAST", "LATITUDE": 40.405447, "LONGITUDE": -74.191716, "STATE_ID": null, "NAICS_CODE": null, "OWNER": null, "TTL_STAFF": null, "BEDS": 225, "TRAUMA": null }, "geometry": { "type": "Point", "coordinates": [ -74.191716000049468, 40.405446999595696 ] } },
{ "type": "Feature", "properties": { "OBJECTID": 85, "NAME": "Capital Health System - Hopewell", "ADDRESS": "1 CAPITAL WAY", "CITY": "HOPEWELL", "STATE": "NJ", "ZIP": "08560", "TELEPHONE": "609-394-4000", "ALT_PHONE": null, "TYPE": "ACUTE CARE HOSPITALS", "COUNTY": "MERCER", "COUNTYFIPS": "34021", "ST_FIPS": "34", "COUNTRY": "US", "REGION": "CENTRAL WEST", "LATITUDE": 40.29222629, "LONGITUDE": -74.80549317000001, "STATE_ID": null, "NAICS_CODE": null, "OWNER": null, "TTL_STAFF": null, "BEDS": 350, "TRAUMA": null }, "geometry": { "type": "Point", "coordinates": [ -74.805493170585734, 40.292226290387291 ] } },
{ "type": "Feature", "properties": { "OBJECTID": 86, "NAME": "Irvington Community Health Center", "ADDRESS": "1150 SPRINGFIELD AVENUE", "CITY": "IRVINGTON", "STATE": "NJ", "ZIP": "07111", "TELEPHONE": "973-399-6292", "ALT_PHONE": null, "TYPE": "FEDERALLY QUALIFIED HEALTH CENTERS", "COUNTY": "ESSEX", "COUNTYFIPS": "34013", "ST_FIPS": "34", "COUNTRY": "US", "REGION": "NORTH EAST", "LATITUDE": 40.72531706, "LONGITUDE": -74.23611096, "STATE_ID": null, "NAICS_CODE": null, "OWNER": null, "TTL_STAFF": null, "BEDS": 9999999, "TRAUMA": null }, "geometry": { "type": "Point", "coordinates": [ -74.236110959495718, 40.72531705968531 ] } },
{ "type": "Feature", "properties": { "OBJECTID": 87, "NAME": "Christ Hospital", "ADDRESS": "176 PALISADE AVENUE", "CITY": "JERSEY CITY", "STATE": "NJ", "ZIP": "07306", "TELEPHONE": "201-795-8200", "ALT_PHONE": null, "TYPE": "ACUTE CARE HOSPITALS", "COUNTY": "HUDSON", "COUNTYFIPS": "34017", "ST_FIPS": "34", "COUNTRY": "US", "REGION": "NORTH EAST", "LATITUDE": 40.73426628, "LONGITUDE": -74.04983403, "STATE_ID": null, "NAICS_CODE": null, "OWNER": null, "TTL_STAFF": null, "BEDS": 402, "TRAUMA": null }, "geometry": { "type": "Point", "coordinates": [ -74.049834030169265, 40.734266279839524 ] } },
{ "type": "Feature", "properties": { "OBJECTID": 88, "NAME": "Jersey City Medical Center", "ADDRESS": "355 GRAND STREET", "CITY": "JERSEY CITY", "STATE": "NJ", "ZIP": "07302", "TELEPHONE": "201-915-2000", "ALT_PHONE": null, "TYPE": "ACUTE CARE HOSPITALS", "COUNTY": "HUDSON", "COUNTYFIPS": "34017", "ST_FIPS": "34", "COUNTRY": "US", "REGION": "NORTH EAST", "LATITUDE": 40.716137, "LONGITUDE": -74.050951, "STATE_ID": null, "NAICS_CODE": null, "OWNER": null, "TTL_STAFF": null, "BEDS": 356, "TRAUMA": "Level II" }, "geometry": { "type": "Point", "coordinates": [ -74.050950999696923, 40.716136999675498 ] } },
{ "type": "Feature", "properties": { "OBJECTID": 89, "NAME": "Alliance Community Healthcare - Christopher Columbus Drive", "ADDRESS": "115 CHRISTOPHER COLUMBUS DR", "CITY": "JERSEY CITY", "STATE": "NJ", "ZIP": "07302", "TELEPHONE": "201-451-6300", "ALT_PHONE": "201-710-2201", "TYPE": "FEDERALLY QUALIFIED HEALTH CENTERS", "COUNTY": "HUDSON", "COUNTYFIPS": "34017", "ST_FIPS": "34", "COUNTRY": "US", "REGION": "NORTH EAST", "LATITUDE": 40.719651, "LONGITUDE": -74.04395387, "STATE_ID": null, "NAICS_CODE": null, "OWNER": null, "TTL_STAFF": null, "BEDS": 9999999, "TRAUMA": null }, "geometry": { "type": "Point", "coordinates": [ -74.04395387002279, 40.719651000231586 ] } },
{ "type": "Feature", "properties": { "OBJECTID": 90, "NAME": "Alliance Community Healthcare - Bergen", "ADDRESS": "714 BERGEN AVE", "CITY": "JERSEY CITY", "STATE": "NJ", "ZIP": "07306", "TELEPHONE": "201-451-6300", "ALT_PHONE": "201-710-2000", "TYPE": "FEDERALLY QUALIFIED HEALTH CENTERS", "COUNTY": "HUDSON", "COUNTYFIPS": "34017", "ST_FIPS": "34", "COUNTRY": "US", "REGION": "NORTH EAST", "LATITUDE": 40.7242874, "LONGITUDE": -74.06983491, "STATE_ID": null, "NAICS_CODE": null, "OWNER": null, "TTL_STAFF": null, "BEDS": 9999999, "TRAUMA": null }, "geometry": { "type": "Point", "coordinates": [ -74.069834909993645, 40.7242873996599 ] } },
{ "type": "Feature", "properties": { "OBJECTID": 91, "NAME": "Metropolitan Family Health Network", "ADDRESS": "935 GARFIELD AVENUE", "CITY": "JERSEY CITY", "STATE": "NJ", "ZIP": "07304", "TELEPHONE": "201-478-5800", "ALT_PHONE": null, "TYPE": "FEDERALLY QUALIFIED HEALTH CENTERS", "COUNTY": "HUDSON", "COUNTYFIPS": "34017", "ST_FIPS": "34", "COUNTRY": "US", "REGION": "NORTH EAST", "LATITUDE": 40.71045141, "LONGITUDE": -74.0705262, "STATE_ID": null, "NAICS_CODE": null, "OWNER": null, "TTL_STAFF": null, "BEDS": 9999999, "TRAUMA": null }, "geometry": { "type": "Point", "coordinates": [ -74.070526199956475, 40.710451409866266 ] } },
{ "type": "Feature", "properties": { "OBJECTID": 92, "NAME": "Metropolitan Family Health Network at Bergen Ave", "ADDRESS": "857 BERGEN AVE", "CITY": "JERSEY CITY", "STATE": "NJ", "ZIP": "07306", "TELEPHONE": "201-478-5800", "ALT_PHONE": null, "TYPE": "FEDERALLY QUALIFIED HEALTH CENTERS", "COUNTY": "HUDSON", "COUNTYFIPS": "34017", "ST_FIPS": "34", "COUNTRY": "US", "REGION": "NORTH EAST", "LATITUDE": 40.7287504, "LONGITUDE": -74.06672988, "STATE_ID": null, "NAICS_CODE": null, "OWNER": null, "TTL_STAFF": null, "BEDS": 9999999, "TRAUMA": null }, "geometry": { "type": "Point", "coordinates": [ -74.066729880525969, 40.728750399951515 ] } },
{ "type": "Feature", "properties": { "OBJECTID": 93, "NAME": "NHCAC Jersey City", "ADDRESS": "324 PALISADE AVENUE", "CITY": "JERSEY CITY", "STATE": "NJ", "ZIP": "07307", "TELEPHONE": "201-459-8888", "ALT_PHONE": null, "TYPE": "FEDERALLY QUALIFIED HEALTH CENTERS", "COUNTY": "HUDSON", "COUNTYFIPS": "34017", "ST_FIPS": "34", "COUNTRY": "US", "REGION": "NORTH EAST", "LATITUDE": 40.73972213, "LONGITUDE": -74.04704822, "STATE_ID": null, "NAICS_CODE": null, "OWNER": null, "TTL_STAFF": null, "BEDS": 9999999, "TRAUMA": null }, "geometry": { "type": "Point", "coordinates": [ -74.047048219552806, 40.73972213044523 ] } },
{ "type": "Feature", "properties": { "OBJECTID": 94, "NAME": "Snyder High School", "ADDRESS": "239 BERGEN AVENUE", "CITY": "JERSEY CITY", "STATE": "NJ", "ZIP": "07503", "TELEPHONE": "201-915-6220", "ALT_PHONE": null, "TYPE": "FEDERALLY QUALIFIED HEALTH CENTERS", "COUNTY": "HUDSON", "COUNTYFIPS": "34017", "ST_FIPS": "34", "COUNTRY": "US", "REGION": "NORTH EAST", "LATITUDE": 40.710154812220424, "LONGITUDE": -74.084149111004905, "STATE_ID": null, "NAICS_CODE": null, "OWNER": null, "TTL_STAFF": null, "BEDS": 9999999, "TRAUMA": null }, "geometry": { "type": "Point", "coordinates": [ -74.08415058437032, 40.710163065356817 ] } },
{ "type": "Feature", "properties": { "OBJECTID": 95, "NAME": "Keansburg Community Health Center", "ADDRESS": "100 MAIN STREET", "CITY": "KEANSBURG", "STATE": "NJ", "ZIP": "07734", "TELEPHONE": "732-787-1250", "ALT_PHONE": "732-774-6333", "TYPE": "FEDERALLY QUALIFIED HEALTH CENTERS", "COUNTY": "MONMOUTH", "COUNTYFIPS": "34025", "ST_FIPS": "34", "COUNTRY": "US", "REGION": "CENTRAL EAST", "LATITUDE": 40.44807596, "LONGITUDE": -74.1295299, "STATE_ID": null, "NAICS_CODE": null, "OWNER": null, "TTL_STAFF": null, "BEDS": 9999999, "TRAUMA": null }, "geometry": { "type": "Point", "coordinates": [ -74.12952990025434, 40.448075959844829 ] } },
{ "type": "Feature", "properties": { "OBJECTID": 96, "NAME": "Keyport Primary Care Center", "ADDRESS": "35 BROAD STREET", "CITY": "KEYPORT", "STATE": "NJ", "ZIP": "07735", "TELEPHONE": "732-888-4149", "ALT_PHONE": "732-774-6333", "TYPE": "FEDERALLY QUALIFIED HEALTH CENTERS", "COUNTY": "MONMOUTH", "COUNTYFIPS": "34025", "ST_FIPS": "34", "COUNTRY": "US", "REGION": "CENTRAL EAST", "LATITUDE": 40.43824813, "LONGITUDE": -74.20221568, "STATE_ID": null, "NAICS_CODE": null, "OWNER": null, "TTL_STAFF": null, "BEDS": 9999999, "TRAUMA": null }, "geometry": { "type": "Point", "coordinates": [ -74.202215680009672, 40.438248130336369 ] } },
{ "type": "Feature", "properties": { "OBJECTID": 97, "NAME": "Ocean Health Initiatives - Manchester", "ADDRESS": "686 STHY 70", "CITY": "LAKEHURST", "STATE": "NJ", "ZIP": "08733", "TELEPHONE": null, "ALT_PHONE": null, "TYPE": "FEDERALLY QUALIFIED HEALTH CENTERS", "COUNTY": "OCEAN", "COUNTYFIPS": "34029", "ST_FIPS": "34", "COUNTRY": "US", "REGION": "CENTRAL EAST", "LATITUDE": 40.01242687, "LONGITUDE": -74.32521246, "STATE_ID": null, "NAICS_CODE": null, "OWNER": null, "TTL_STAFF": null, "BEDS": 9999999, "TRAUMA": null }, "geometry": { "type": "Point", "coordinates": [ -74.325212460084643, 40.012426869767083 ] } },
{ "type": "Feature", "properties": { "OBJECTID": 98, "NAME": "Monmouth Medical Center - Southern Campus", "ADDRESS": "600 RIVER AVENUE", "CITY": "LAKEWOOD", "STATE": "NJ", "ZIP": "08701-4281", "TELEPHONE": "732-363-1900", "ALT_PHONE": "732-886-4740", "TYPE": "ACUTE CARE HOSPITALS", "COUNTY": "OCEAN", "COUNTYFIPS": "34029", "ST_FIPS": "34", "COUNTRY": "US", "REGION": "CENTRAL EAST", "LATITUDE": 40.073225, "LONGITUDE": -74.218517, "STATE_ID": null, "NAICS_CODE": null, "OWNER": null, "TTL_STAFF": null, "BEDS": 353, "TRAUMA": null }, "geometry": { "type": "Point", "coordinates": [ -74.218516999642205, 40.073224999615221 ] } },
{ "type": "Feature", "properties": { "OBJECTID": 99, "NAME": "CHEMED (Center for Health, Education, Medicine and Dentistry)", "ADDRESS": "1771 MADISON AVENUE", "CITY": "LAKEWOOD", "STATE": "NJ", "ZIP": "08701", "TELEPHONE": "732-364-2144", "ALT_PHONE": null, "TYPE": "FEDERALLY QUALIFIED HEALTH CENTERS", "COUNTY": "OCEAN", "COUNTYFIPS": "34029", "ST_FIPS": "34", "COUNTRY": "US", "REGION": "CENTRAL EAST", "LATITUDE": 40.10812216, "LONGITUDE": -74.21925482, "STATE_ID": null, "NAICS_CODE": null, "OWNER": null, "TTL_STAFF": null, "BEDS": 9999999, "TRAUMA": null }, "geometry": { "type": "Point", "coordinates": [ -74.21925482026198, 40.108122159888062 ] } },
{ "type": "Feature", "properties": { "OBJECTID": 100, "NAME": "Ocean Health Initiatives - Lakewood", "ADDRESS": "101 SECOND STREET", "CITY": "LAKEWOOD", "STATE": "NJ", "ZIP": "08701", "TELEPHONE": "732-363-6655", "ALT_PHONE": null, "TYPE": "FEDERALLY QUALIFIED HEALTH CENTERS", "COUNTY": "OCEAN", "COUNTYFIPS": "34029", "ST_FIPS": "34", "COUNTRY": "US", "REGION": "CENTRAL EAST", "LATITUDE": 40.09316355, "LONGITUDE": -74.20810392, "STATE_ID": null, "NAICS_CODE": null, "OWNER": null, "TTL_STAFF": null, "BEDS": 9999999, "TRAUMA": null }, "geometry": { "type": "Point", "coordinates": [ -74.208103919923161, 40.093163549753534 ] } },
{ "type": "Feature", "properties": { "OBJECTID": 101, "NAME": "Ocean Health Initiatives Mobile Unit", "ADDRESS": "101 SECOND STREET", "CITY": "LAKEWOOD", "STATE": "NJ", "ZIP": "08701", "TELEPHONE": "732-363-6655", "ALT_PHONE": null, "TYPE": "FEDERALLY QUALIFIED HEALTH CENTERS", "COUNTY": "OCEAN", "COUNTYFIPS": "34029", "ST_FIPS": "34", "COUNTRY": "US", "REGION": "CENTRAL EAST", "LATITUDE": 40.09316355, "LONGITUDE": -74.20810392, "STATE_ID": null, "NAICS_CODE": null, "OWNER": null, "TTL_STAFF": null, "BEDS": 9999999, "TRAUMA": null }, "geometry": { "type": "Point", "coordinates": [ -74.208103919923161, 40.093163549753534 ] } },
{ "type": "Feature", "properties": { "OBJECTID": 102, "NAME": "Ocean Health Initiatives at Clifton Avenue Grade School - SBHC", "ADDRESS": "625 CLIFTON AVENUE", "CITY": "LAKEWOOD", "STATE": "NJ", "ZIP": "08701", "TELEPHONE": "732-719-1505", "ALT_PHONE": null, "TYPE": "FEDERALLY QUALIFIED HEALTH CENTERS", "COUNTY": "OCEAN", "COUNTYFIPS": "34029", "ST_FIPS": "34", "COUNTRY": "US", "REGION": "CENTRAL EAST", "LATITUDE": 40.09552816, "LONGITUDE": -74.21528398, "STATE_ID": null, "NAICS_CODE": null, "OWNER": null, "TTL_STAFF": null, "BEDS": 9999999, "TRAUMA": null }, "geometry": { "type": "Point", "coordinates": [ -74.215283980512808, 40.095528160106618 ] } },
{ "type": "Feature", "properties": { "OBJECTID": 103, "NAME": "Specialty Hospital of Central Jersey", "ADDRESS": "600 USHY 9", "CITY": "LAKEWOOD", "STATE": "NJ", "ZIP": "08701", "TELEPHONE": null, "ALT_PHONE": null, "TYPE": "NON ACUTE CARE HOSPITALS", "COUNTY": "OCEAN", "COUNTYFIPS": "34029", "ST_FIPS": "34", "COUNTRY": "US", "REGION": "CENTRAL EAST", "LATITUDE": 40.09581026, "LONGITUDE": -74.2174799, "STATE_ID": null, "NAICS_CODE": null, "OWNER": null, "TTL_STAFF": null, "BEDS": 9999999, "TRAUMA": null }, "geometry": { "type": "Point", "coordinates": [ -74.217479900387886, 40.095810260367145 ] } },
{ "type": "Feature", "properties": { "OBJECTID": 104, "NAME": "St. Lawrence Rehabilitation Center", "ADDRESS": "2381 LAWRENCEVILLE ROAD", "CITY": "LAWRENCEVILLE", "STATE": "NJ", "ZIP": "08648", "TELEPHONE": "609-896-9500", "ALT_PHONE": null, "TYPE": "NON ACUTE CARE HOSPITALS", "COUNTY": "MERCER", "COUNTYFIPS": "34021", "ST_FIPS": "34", "COUNTRY": "US", "REGION": "CENTRAL WEST", "LATITUDE": 40.28842476, "LONGITUDE": -74.73442678000001, "STATE_ID": null, "NAICS_CODE": null, "OWNER": null, "TTL_STAFF": null, "BEDS": 9999999, "TRAUMA": null }, "geometry": { "type": "Point", "coordinates": [ -74.734426780563865, 40.288424760150683 ] } },
{ "type": "Feature", "properties": { "OBJECTID": 105, "NAME": "Saint Barnabas Medical Center", "ADDRESS": "94 OLD SHORT HILLS ROAD", "CITY": "LIVINGSTON", "STATE": "NJ", "ZIP": "07039", "TELEPHONE": "973-322-5000", "ALT_PHONE": "973-322-8258", "TYPE": "ACUTE CARE HOSPITALS", "COUNTY": "ESSEX", "COUNTYFIPS": "34013", "ST_FIPS": "34", "COUNTRY": "US", "REGION": "NORTH EAST", "LATITUDE": 40.76354769, "LONGITUDE": -74.30481635, "STATE_ID": null, "NAICS_CODE": null, "OWNER": null, "TTL_STAFF": null, "BEDS": 622, "TRAUMA": null }, "geometry": { "type": "Point", "coordinates": [ -74.304816349844415, 40.763547689976548 ] } },
{ "type": "Feature", "properties": { "OBJECTID": 106, "NAME": "Monmouth Medical Center", "ADDRESS": "300 SECOND AVENUE", "CITY": "LONG BRANCH", "STATE": "NJ", "ZIP": "07740", "TELEPHONE": "732-222-5200", "ALT_PHONE": null, "TYPE": "ACUTE CARE HOSPITALS", "COUNTY": "MONMOUTH", "COUNTYFIPS": "34025", "ST_FIPS": "34", "COUNTRY": "US", "REGION": "CENTRAL EAST", "LATITUDE": 40.29524204, "LONGITUDE": -73.98367047000001, "STATE_ID": null, "NAICS_CODE": null, "OWNER": null, "TTL_STAFF": null, "BEDS": 527, "TRAUMA": null }, "geometry": { "type": "Point", "coordinates": [ -73.983670469752155, 40.295242039583222 ] } },
{ "type": "Feature", "properties": { "OBJECTID": 107, "NAME": "Monmouth Family Health Center - Broadway", "ADDRESS": "270 BROADWAY", "CITY": "LONG BRANCH", "STATE": "NJ", "ZIP": "07740", "TELEPHONE": "732-923-7100", "ALT_PHONE": "917-453-4827", "TYPE": "FEDERALLY QUALIFIED HEALTH CENTERS", "COUNTY": "MONMOUTH", "COUNTYFIPS": "34025", "ST_FIPS": "34", "COUNTRY": "US", "REGION": "CENTRAL EAST", "LATITUDE": 40.30425001, "LONGITUDE": -73.98886739, "STATE_ID": null, "NAICS_CODE": null, "OWNER": null, "TTL_STAFF": null, "BEDS": 9999999, "TRAUMA": null }, "geometry": { "type": "Point", "coordinates": [ -73.988867390054196, 40.30425001003929 ] } },
{ "type": "Feature", "properties": { "OBJECTID": 108, "NAME": "Monmouth Family Health Center - Dental Clinic", "ADDRESS": "300 SECOND AVE", "CITY": "LONG BRANCH", "STATE": "NJ", "ZIP": "07740", "TELEPHONE": "732-923-6585", "ALT_PHONE": null, "TYPE": "FEDERALLY QUALIFIED HEALTH CENTERS", "COUNTY": "MONMOUTH", "COUNTYFIPS": "34025", "ST_FIPS": "34", "COUNTRY": "US", "REGION": "CENTRAL EAST", "LATITUDE": 40.29542108, "LONGITUDE": -73.98364152000001, "STATE_ID": null, "NAICS_CODE": null, "OWNER": null, "TTL_STAFF": null, "BEDS": 9999999, "TRAUMA": null }, "geometry": { "type": "Point", "coordinates": [ -73.983641519486653, 40.295421080081937 ] } },
{ "type": "Feature", "properties": { "OBJECTID": 109, "NAME": "Women's Wellness Center of Monmouth Family Health Center", "ADDRESS": "80 PAVILLION AVENUE", "CITY": "LONG BRANCH", "STATE": "NJ", "ZIP": "07740", "TELEPHONE": "732-963-0114", "ALT_PHONE": null, "TYPE": "FEDERALLY QUALIFIED HEALTH CENTERS", "COUNTY": "MONMOUTH", "COUNTYFIPS": "34025", "ST_FIPS": "34", "COUNTRY": "US", "REGION": "CENTRAL EAST", "LATITUDE": 40.2969769, "LONGITUDE": -73.9825983, "STATE_ID": null, "NAICS_CODE": null, "OWNER": null, "TTL_STAFF": null, "BEDS": 9999999, "TRAUMA": null }, "geometry": { "type": "Point", "coordinates": [ -73.982598299612647, 40.296976900204015 ] } },
{ "type": "Feature", "properties": { "OBJECTID": 110, "NAME": "AcuteCare Specialty Hospital of Monmouth", "ADDRESS": "300 2ND AVE", "CITY": "LONG BRANCH", "STATE": "NJ", "ZIP": "07740", "TELEPHONE": null, "ALT_PHONE": null, "TYPE": "NON ACUTE CARE HOSPITALS", "COUNTY": "MONMOUTH", "COUNTYFIPS": "34025", "ST_FIPS": "34", "COUNTRY": "US", "REGION": "CENTRAL EAST", "LATITUDE": 40.29523124, "LONGITUDE": -73.98367946, "STATE_ID": null, "NAICS_CODE": null, "OWNER": null, "TTL_STAFF": null, "BEDS": 9999999, "TRAUMA": null }, "geometry": { "type": "Point", "coordinates": [ -73.983679459579719, 40.295231240282654 ] } },
{ "type": "Feature", "properties": { "OBJECTID": 111, "NAME": "Southern Ocean Medical Center", "ADDRESS": "1140 ROUTE 72 WEST", "CITY": "MANAHAWKIN", "STATE": "NJ", "ZIP": "08050", "TELEPHONE": "609-597-6011", "ALT_PHONE": "609-978-8900", "TYPE": "ACUTE CARE HOSPITALS", "COUNTY": "OCEAN", "COUNTYFIPS": "34029", "ST_FIPS": "34", "COUNTRY": "US", "REGION": "CENTRAL EAST", "LATITUDE": 39.72106632, "LONGITUDE": -74.28466107, "STATE_ID": null, "NAICS_CODE": null, "OWNER": null, "TTL_STAFF": null, "BEDS": 176, "TRAUMA": null }, "geometry": { "type": "Point", "coordinates": [ -74.284661070113401, 39.721066320157767 ] } },
{ "type": "Feature", "properties": { "OBJECTID": 112, "NAME": "Ocean Health Initiatives- Stafford", "ADDRESS": "333 HAYWOOD RD", "CITY": "MANAHAWKIN", "STATE": "NJ", "ZIP": "08050", "TELEPHONE": "609-489-0110", "ALT_PHONE": null, "TYPE": "FEDERALLY QUALIFIED HEALTH CENTERS", "COUNTY": "OCEAN", "COUNTYFIPS": "34029", "ST_FIPS": "34", "COUNTRY": "US", "REGION": "CENTRAL EAST", "LATITUDE": 39.71306757, "LONGITUDE": -74.28950561000001, "STATE_ID": null, "NAICS_CODE": null, "OWNER": null, "TTL_STAFF": null, "BEDS": 9999999, "TRAUMA": null }, "geometry": { "type": "Point", "coordinates": [ -74.289505610284863, 39.713067569722007 ] } },
{ "type": "Feature", "properties": { "OBJECTID": 113, "NAME": "Virtua West Jersey Hospital - Marlton", "ADDRESS": "90 BRICK ROAD", "CITY": "MARLTON", "STATE": "NJ", "ZIP": "08053", "TELEPHONE": "856-355-6200", "ALT_PHONE": null, "TYPE": "ACUTE CARE HOSPITALS", "COUNTY": "BURLINGTON", "COUNTYFIPS": "34005", "ST_FIPS": "34", "COUNTRY": "US", "REGION": "SOUTH", "LATITUDE": 39.881499, "LONGITUDE": -74.918512, "STATE_ID": null, "NAICS_CODE": null, "OWNER": null, "TTL_STAFF": null, "BEDS": 188, "TRAUMA": null }, "geometry": { "type": "Point", "coordinates": [ -74.918512000566949, 39.881499000390214 ] } },
{ "type": "Feature", "properties": { "OBJECTID": 114, "NAME": "Marlton Rehabilitation Hospital", "ADDRESS": "92 BRICK ROAD", "CITY": "MARLTON", "STATE": "NJ", "ZIP": "08053", "TELEPHONE": "856-988-8778", "ALT_PHONE": "800-988-9828", "TYPE": "NON ACUTE CARE HOSPITALS", "COUNTY": "BURLINGTON", "COUNTYFIPS": "34005", "ST_FIPS": "34", "COUNTRY": "US", "REGION": "SOUTH", "LATITUDE": 39.88242218, "LONGITUDE": -74.9182013, "STATE_ID": null, "NAICS_CODE": null, "OWNER": null, "TTL_STAFF": null, "BEDS": 9999999, "TRAUMA": null }, "geometry": { "type": "Point", "coordinates": [ -74.918201299846814, 39.882422179895009 ] } },
{ "type": "Feature", "properties": { "OBJECTID": 115, "NAME": "Weisman Children's Rehabilitation Hospital", "ADDRESS": "92 BRICK ROAD", "CITY": "MARLTON", "STATE": "NJ", "ZIP": "08053", "TELEPHONE": "609-489-4520", "ALT_PHONE": "877-543-8774", "TYPE": "NON ACUTE CARE HOSPITALS", "COUNTY": "BURLINGTON", "COUNTYFIPS": "34005", "ST_FIPS": "34", "COUNTRY": "US", "REGION": "SOUTH", "LATITUDE": 39.88267778, "LONGITUDE": -74.91812344, "STATE_ID": null, "NAICS_CODE": null, "OWNER": null, "TTL_STAFF": null, "BEDS": 9999999, "TRAUMA": null }, "geometry": { "type": "Point", "coordinates": [ -74.918123439962173, 39.882677779877405 ] } },
{ "type": "Feature", "properties": { "OBJECTID": 116, "NAME": "Millville Community Health Center", "ADDRESS": "1200 N. HIGH STREET", "CITY": "MILLVILLE", "STATE": "NJ", "ZIP": "08332", "TELEPHONE": "856-451-4700", "ALT_PHONE": null, "TYPE": "FEDERALLY QUALIFIED HEALTH CENTERS", "COUNTY": "CUMBERLAND", "COUNTYFIPS": "34011", "ST_FIPS": "34", "COUNTRY": "US", "REGION": "SOUTH", "LATITUDE": 39.40976263, "LONGITUDE": -75.03970441, "STATE_ID": null, "NAICS_CODE": null, "OWNER": null, "TTL_STAFF": null, "BEDS": 9999999, "TRAUMA": null }, "geometry": { "type": "Point", "coordinates": [ -75.03970440990372, 39.40976262981529 ] } },
{ "type": "Feature", "properties": { "OBJECTID": 117, "NAME": "Hackensack UMC Mountainside", "ADDRESS": "1 BAY AVENUE", "CITY": "MONTCLAIR", "STATE": "NJ", "ZIP": "07042", "TELEPHONE": "973-429-6000", "ALT_PHONE": "973-429-6600", "TYPE": "ACUTE CARE HOSPITALS", "COUNTY": "ESSEX", "COUNTYFIPS": "34013", "ST_FIPS": "34", "COUNTRY": "US", "REGION": "NORTH EAST", "LATITUDE": 40.811727, "LONGITUDE": -74.203574, "STATE_ID": null, "NAICS_CODE": null, "OWNER": null, "TTL_STAFF": null, "BEDS": 347, "TRAUMA": null }, "geometry": { "type": "Point", "coordinates": [ -74.203574000297337, 40.811726999995642 ] } },
{ "type": "Feature", "properties": { "OBJECTID": 118, "NAME": "Morristown Medical Center", "ADDRESS": "100 MADISON AVENUE", "CITY": "MORRISTOWN", "STATE": "NJ", "ZIP": "07962-1956", "TELEPHONE": "973-971-5000", "ALT_PHONE": "973-971-5555", "TYPE": "ACUTE CARE HOSPITALS", "COUNTY": "MORRIS", "COUNTYFIPS": "34027", "ST_FIPS": "34", "COUNTRY": "US", "REGION": "NORTH WEST", "LATITUDE": 40.78949627, "LONGITUDE": -74.46548742, "STATE_ID": null, "NAICS_CODE": null, "OWNER": null, "TTL_STAFF": null, "BEDS": 693, "TRAUMA": "Level II" }, "geometry": { "type": "Point", "coordinates": [ -74.465487419614121, 40.789496269958164 ] } },
{ "type": "Feature", "properties": { "OBJECTID": 119, "NAME": "Zufall Health Center at Morristown", "ADDRESS": "2-4 ATNO AVENUE", "CITY": "MORRISTOWN", "STATE": "NJ", "ZIP": "07960", "TELEPHONE": "973-267-0002", "ALT_PHONE": null, "TYPE": "FEDERALLY QUALIFIED HEALTH CENTERS", "COUNTY": "MORRIS", "COUNTYFIPS": "34027", "ST_FIPS": "34", "COUNTRY": "US", "REGION": "NORTH WEST", "LATITUDE": 40.79874464, "LONGITUDE": -74.48513046, "STATE_ID": null, "NAICS_CODE": null, "OWNER": null, "TTL_STAFF": null, "BEDS": 9999999, "TRAUMA": null }, "geometry": { "type": "Point", "coordinates": [ -74.485130459457693, 40.798744640006838 ] } },
{ "type": "Feature", "properties": { "OBJECTID": 120, "NAME": "Atlantic Rehabilitation Institute", "ADDRESS": "95 USHY 202", "CITY": "MORRISTOWN", "STATE": "NJ", "ZIP": "07960", "TELEPHONE": null, "ALT_PHONE": null, "TYPE": "NON ACUTE CARE HOSPITALS", "COUNTY": "MORRIS", "COUNTYFIPS": "34027", "ST_FIPS": "34", "COUNTRY": "US", "REGION": "NORTH WEST", "LATITUDE": 40.79995694, "LONGITUDE": -74.48156016, "STATE_ID": null, "NAICS_CODE": null, "OWNER": null, "TTL_STAFF": null, "BEDS": 9999999, "TRAUMA": null }, "geometry": { "type": "Point", "coordinates": [ -74.481560159483138, 40.799956940215196 ] } },
{ "type": "Feature", "properties": { "OBJECTID": 121, "NAME": "Greystone Park Psychiatric Hospital", "ADDRESS": "59 KOCH AVENUE", "CITY": "MORRISTOWN", "STATE": "NJ", "ZIP": "07950-4400", "TELEPHONE": "973-538-1800", "ALT_PHONE": null, "TYPE": "NON ACUTE CARE HOSPITALS", "COUNTY": "MERCER", "COUNTYFIPS": "34021", "ST_FIPS": "34", "COUNTRY": "US", "REGION": "CENTRAL WEST", "LATITUDE": 40.83590289, "LONGITUDE": -74.50887341000001, "STATE_ID": null, "NAICS_CODE": null, "OWNER": null, "TTL_STAFF": null, "BEDS": 9999999, "TRAUMA": null }, "geometry": { "type": "Point", "coordinates": [ -74.508873409460463, 40.835902889642448 ] } },
{ "type": "Feature", "properties": { "OBJECTID": 122, "NAME": "Morristown Memorial Hospital - Mt. Kemble Division", "ADDRESS": "95 MOUNT KIMBLE AVENUE", "CITY": "MORRISTOWN", "STATE": "NJ", "ZIP": "07962", "TELEPHONE": "973-971-5450", "ALT_PHONE": null, "TYPE": "NON ACUTE CARE HOSPITALS", "COUNTY": "MORRIS", "COUNTYFIPS": "34027", "ST_FIPS": "34", "COUNTRY": "US", "REGION": "NORTH WEST", "LATITUDE": 40.789693, "LONGITUDE": -74.489473, "STATE_ID": null, "NAICS_CODE": null, "OWNER": null, "TTL_STAFF": null, "BEDS": 9999999, "TRAUMA": null }, "geometry": { "type": "Point", "coordinates": [ -74.489473000194309, 40.789692999555541 ] } },
{ "type": "Feature", "properties": { "OBJECTID": 123, "NAME": "Buttonwood Hospital of Burlington County", "ADDRESS": "600 PEMBERTON-BROWNS MILLS ROAD", "CITY": "MOUNT HOLLY", "STATE": "NJ", "ZIP": "08060", "TELEPHONE": "609-726-7000", "ALT_PHONE": null, "TYPE": "NON ACUTE CARE HOSPITALS", "COUNTY": "BURLINGTON", "COUNTYFIPS": "34005", "ST_FIPS": "34", "COUNTRY": "US", "REGION": "SOUTH", "LATITUDE": 39.967734, "LONGITUDE": -74.637807, "STATE_ID": null, "NAICS_CODE": null, "OWNER": null, "TTL_STAFF": null, "BEDS": 9999999, "TRAUMA": null }, "geometry": { "type": "Point", "coordinates": [ -74.637806999860317, 39.967733999623348 ] } },
{ "type": "Feature", "properties": { "OBJECTID": 124, "NAME": "Children's Specialized Hospital at Mountainside", "ADDRESS": "150 NEW PROVIDENCE ROAD", "CITY": "MOUNTAINSIDE", "STATE": "NJ", "ZIP": "07092", "TELEPHONE": "908-301-5534", "ALT_PHONE": null, "TYPE": "NON ACUTE CARE HOSPITALS", "COUNTY": "UNION", "COUNTYFIPS": "34039", "ST_FIPS": "34", "COUNTRY": "US", "REGION": "CENTRAL EAST", "LATITUDE": 40.669729, "LONGITUDE": -74.353933, "STATE_ID": null, "NAICS_CODE": null, "OWNER": null, "TTL_STAFF": null, "BEDS": 9999999, "TRAUMA": null }, "geometry": { "type": "Point", "coordinates": [ -74.353932999505844, 40.669729000056719 ] } },
{ "type": "Feature", "properties": { "OBJECTID": 125, "NAME": "Virtua Memorial Hospital of Burlington County", "ADDRESS": "175 MADISON AVENUE", "CITY": "MT. HOLLY", "STATE": "NJ", "ZIP": "08060", "TELEPHONE": "609-267-0700", "ALT_PHONE": null, "TYPE": "ACUTE CARE HOSPITALS", "COUNTY": "BURLINGTON", "COUNTYFIPS": "34005", "ST_FIPS": "34", "COUNTRY": "US", "REGION": "SOUTH", "LATITUDE": 39.985987, "LONGITUDE": -74.795244, "STATE_ID": null, "NAICS_CODE": null, "OWNER": null, "TTL_STAFF": null, "BEDS": 369, "TRAUMA": null }, "geometry": { "type": "Point", "coordinates": [ -74.795244000511246, 39.985986999661364 ] } },
{ "type": "Feature", "properties": { "OBJECTID": 126, "NAME": "Jersey Shore University Medical Center", "ADDRESS": "1945 ROUTE 33", "CITY": "NEPTUNE", "STATE": "NJ", "ZIP": "07753", "TELEPHONE": "732-775-5500", "ALT_PHONE": null, "TYPE": "ACUTE CARE HOSPITALS", "COUNTY": "MONMOUTH", "COUNTYFIPS": "34025", "ST_FIPS": "34", "COUNTRY": "US", "REGION": "CENTRAL EAST", "LATITUDE": 40.20853511, "LONGITUDE": -74.04070776, "STATE_ID": null, "NAICS_CODE": null, "OWNER": null, "TTL_STAFF": null, "BEDS": 558, "TRAUMA": "Level II" }, "geometry": { "type": "Point", "coordinates": [ -74.040707759924814, 40.208535110081947 ] } },
{ "type": "Feature", "properties": { "OBJECTID": 127, "NAME": "Robert Wood Johnson University Hospital", "ADDRESS": "ONE ROBERT WOOD JOHNSON PLACE", "CITY": "NEW BRUNSWICK", "STATE": "NJ", "ZIP": "08903-2601", "TELEPHONE": "732-828-3000", "ALT_PHONE": null, "TYPE": "ACUTE CARE HOSPITALS", "COUNTY": "MIDDLESEX", "COUNTYFIPS": "34023", "ST_FIPS": "34", "COUNTRY": "US", "REGION": "CENTRAL EAST", "LATITUDE": 40.49570033, "LONGITUDE": -74.44997405, "STATE_ID": null, "NAICS_CODE": null, "OWNER": null, "TTL_STAFF": null, "BEDS": 610, "TRAUMA": "Level I" }, "geometry": { "type": "Point", "coordinates": [ -74.449974049737349, 40.495700330563437 ] } },
{ "type": "Feature", "properties": { "OBJECTID": 128, "NAME": "Saint Peter's University Hospital", "ADDRESS": "254 EASTON AVENUE", "CITY": "NEW BRUNSWICK", "STATE": "NJ", "ZIP": "08901", "TELEPHONE": "732-745-8600", "ALT_PHONE": "732-843-4263", "TYPE": "ACUTE CARE HOSPITALS", "COUNTY": "MIDDLESEX", "COUNTYFIPS": "34023", "ST_FIPS": "34", "COUNTRY": "US", "REGION": "CENTRAL EAST", "LATITUDE": 40.501287, "LONGITUDE": -74.45955906, "STATE_ID": null, "NAICS_CODE": null, "OWNER": null, "TTL_STAFF": null, "BEDS": 474, "TRAUMA": null }, "geometry": { "type": "Point", "coordinates": [ -74.459559060002789, 40.501287000505251 ] } },
{ "type": "Feature", "properties": { "OBJECTID": 129, "NAME": "Eric B. Chandler Health Center", "ADDRESS": "277 GEORGE STREET", "CITY": "NEW BRUNSWICK", "STATE": "NJ", "ZIP": "08901", "TELEPHONE": "732-235-6700", "ALT_PHONE": null, "TYPE": "FEDERALLY QUALIFIED HEALTH CENTERS", "COUNTY": "MIDDLESEX", "COUNTYFIPS": "34023", "ST_FIPS": "34", "COUNTRY": "US", "REGION": "CENTRAL EAST", "LATITUDE": 40.48853645, "LONGITUDE": -74.44079308000001, "STATE_ID": null, "NAICS_CODE": null, "OWNER": null, "TTL_STAFF": null, "BEDS": 9999999, "TRAUMA": null }, "geometry": { "type": "Point", "coordinates": [ -74.44079308047165, 40.4885364503997 ] } },
{ "type": "Feature", "properties": { "OBJECTID": 130, "NAME": "Eric B. Chandler Health Center Church Street Annex", "ADDRESS": "123 CHURCH STREET", "CITY": "NEW BRUNSWICK", "STATE": "NJ", "ZIP": "08901", "TELEPHONE": "732-235-2052", "ALT_PHONE": null, "TYPE": "FEDERALLY QUALIFIED HEALTH CENTERS", "COUNTY": "MIDDLESEX", "COUNTYFIPS": "34023", "ST_FIPS": "34", "COUNTRY": "US", "REGION": "CENTRAL EAST", "LATITUDE": 40.49578589, "LONGITUDE": -74.44529796, "STATE_ID": null, "NAICS_CODE": null, "OWNER": null, "TTL_STAFF": null, "BEDS": 9999999, "TRAUMA": null }, "geometry": { "type": "Point", "coordinates": [ -74.445297959909595, 40.495785891296883 ] } },
{ "type": "Feature", "properties": { "OBJECTID": 131, "NAME": "Children's Specialized Hospital - New Brunswick", "ADDRESS": "146 SOMERSET ST", "CITY": "NEW BRUNSWICK", "STATE": "NJ", "ZIP": "08901", "TELEPHONE": null, "ALT_PHONE": null, "TYPE": "NON ACUTE CARE HOSPITALS", "COUNTY": "MIDDLESEX", "COUNTYFIPS": "34023", "ST_FIPS": "34", "COUNTRY": "US", "REGION": "CENTRAL EAST", "LATITUDE": 40.49631181, "LONGITUDE": -74.44967145, "STATE_ID": null, "NAICS_CODE": null, "OWNER": null, "TTL_STAFF": null, "BEDS": 9999999, "TRAUMA": null }, "geometry": { "type": "Point", "coordinates": [ -74.449671450528982, 40.49631181072732 ] } },
{ "type": "Feature", "properties": { "OBJECTID": 132, "NAME": "Newark Beth Israel Medical Center", "ADDRESS": "201 LYONS AVENUE AT OSBORNE", "CITY": "NEWARK", "STATE": "NJ", "ZIP": "07112", "TELEPHONE": "973-926-7000", "ALT_PHONE": null, "TYPE": "ACUTE CARE HOSPITALS", "COUNTY": "ESSEX", "COUNTYFIPS": "34013", "ST_FIPS": "34", "COUNTRY": "US", "REGION": "NORTH EAST", "LATITUDE": 40.70996132, "LONGITUDE": -74.21285675, "STATE_ID": null, "NAICS_CODE": null, "OWNER": null, "TTL_STAFF": null, "BEDS": 673, "TRAUMA": null }, "geometry": { "type": "Point", "coordinates": [ -74.212856749614488, 40.709961319583215 ] } },
{ "type": "Feature", "properties": { "OBJECTID": 133, "NAME": "Saint Michael's Medical Center", "ADDRESS": "111 CENTRAL AVENUE", "CITY": "NEWARK", "STATE": "NJ", "ZIP": "07102", "TELEPHONE": "973-877-5000", "ALT_PHONE": "973-877-5411", "TYPE": "ACUTE CARE HOSPITALS", "COUNTY": "ESSEX", "COUNTYFIPS": "34013", "ST_FIPS": "34", "COUNTRY": "US", "REGION": "NORTH EAST", "LATITUDE": 40.743088, "LONGITUDE": -74.174331, "STATE_ID": null, "NAICS_CODE": null, "OWNER": null, "TTL_STAFF": null, "BEDS": 357, "TRAUMA": null }, "geometry": { "type": "Point", "coordinates": [ -74.174331000490412, 40.743088000020144 ] } },
{ "type": "Feature", "properties": { "OBJECTID": 134, "NAME": "University Hospital", "ADDRESS": "150 BERGEN ST.", "CITY": "NEWARK", "STATE": "NJ", "ZIP": "07103", "TELEPHONE": "973-972-1000", "ALT_PHONE": "973-972-6000", "TYPE": "ACUTE CARE HOSPITALS", "COUNTY": "ESSEX", "COUNTYFIPS": "34013", "ST_FIPS": "34", "COUNTRY": "US", "REGION": "NORTH EAST", "LATITUDE": 40.740639, "LONGITUDE": -74.190872, "STATE_ID": null, "NAICS_CODE": null, "OWNER": null, "TTL_STAFF": null, "BEDS": 519, "TRAUMA": "Level I" }, "geometry": { "type": "Point", "coordinates": [ -74.190872000125822, 40.740638999578948 ] } },
{ "type": "Feature", "properties": { "OBJECTID": 135, "NAME": "George Washington Carver", "ADDRESS": "333 CLINTON PLACE", "CITY": "NEWARK", "STATE": "NJ", "ZIP": "07112", "TELEPHONE": "973-705-3880", "ALT_PHONE": null, "TYPE": "FEDERALLY QUALIFIED HEALTH CENTERS", "COUNTY": "ESSEX", "COUNTYFIPS": "34013", "ST_FIPS": "34", "COUNTRY": "US", "REGION": "NORTH EAST", "LATITUDE": 40.71238928, "LONGITUDE": -74.21518343, "STATE_ID": null, "NAICS_CODE": null, "OWNER": null, "TTL_STAFF": null, "BEDS": 9999999, "TRAUMA": null }, "geometry": { "type": "Point", "coordinates": [ -74.215183430509299, 40.712389279657771 ] } },
{ "type": "Feature", "properties": { "OBJECTID": 136, "NAME": "Newark Community Health Center", "ADDRESS": "101 LUDLOW STREET", "CITY": "NEWARK", "STATE": "NJ", "ZIP": "07114", "TELEPHONE": "973-565-0355", "ALT_PHONE": null, "TYPE": "FEDERALLY QUALIFIED HEALTH CENTERS", "COUNTY": "ESSEX", "COUNTYFIPS": "34013", "ST_FIPS": "34", "COUNTRY": "US", "REGION": "NORTH EAST", "LATITUDE": 40.68992435, "LONGITUDE": -74.2052424, "STATE_ID": null, "NAICS_CODE": null, "OWNER": null, "TTL_STAFF": null, "BEDS": 9999999, "TRAUMA": null }, "geometry": { "type": "Point", "coordinates": [ -74.205242399542897, 40.68992434996855 ] } },
{ "type": "Feature", "properties": { "OBJECTID": 137, "NAME": "Newark Community Health Center St. James Hospital", "ADDRESS": "155 JEFFERSON ST", "CITY": "NEWARK", "STATE": "NJ", "ZIP": "07105", "TELEPHONE": "973-483-1399", "ALT_PHONE": null, "TYPE": "FEDERALLY QUALIFIED HEALTH CENTERS", "COUNTY": "ESSEX", "COUNTYFIPS": "34013", "ST_FIPS": "34", "COUNTRY": "US", "REGION": "NORTH EAST", "LATITUDE": 40.72780612, "LONGITUDE": -74.16318217, "STATE_ID": null, "NAICS_CODE": null, "OWNER": null, "TTL_STAFF": null, "BEDS": 9999999, "TRAUMA": null }, "geometry": { "type": "Point", "coordinates": [ -74.163182169766174, 40.727806119577892 ] } },
{ "type": "Feature", "properties": { "OBJECTID": 138, "NAME": "Newark Community Health Centers, Inc", "ADDRESS": "741 BROADWAY", "CITY": "NEWARK", "STATE": "NJ", "ZIP": "07104", "TELEPHONE": "973-483-1300", "ALT_PHONE": null, "TYPE": "FEDERALLY QUALIFIED HEALTH CENTERS", "COUNTY": "ESSEX", "COUNTYFIPS": "34013", "ST_FIPS": "34", "COUNTRY": "US", "REGION": "NORTH EAST", "LATITUDE": 40.77520238, "LONGITUDE": -74.15906682000001, "STATE_ID": null, "NAICS_CODE": null, "OWNER": null, "TTL_STAFF": null, "BEDS": 9999999, "TRAUMA": null }, "geometry": { "type": "Point", "coordinates": [ -74.159066819905917, 40.775202380382062 ] } },
{ "type": "Feature", "properties": { "OBJECTID": 139, "NAME": "Newark Homeless Health Care Project", "ADDRESS": "110 WILLIAM STREET", "CITY": "NEWARK", "STATE": "NJ", "ZIP": "07102", "TELEPHONE": "973-733-5300", "ALT_PHONE": null, "TYPE": "FEDERALLY QUALIFIED HEALTH CENTERS", "COUNTY": "ESSEX", "COUNTYFIPS": "34013", "ST_FIPS": "34", "COUNTRY": "US", "REGION": "NORTH EAST", "LATITUDE": 40.73462191, "LONGITUDE": -74.17885093, "STATE_ID": null, "NAICS_CODE": null, "OWNER": null, "TTL_STAFF": null, "BEDS": 9999999, "TRAUMA": null }, "geometry": { "type": "Point", "coordinates": [ -74.178850929490977, 40.734621909699371 ] } },
{ "type": "Feature", "properties": { "OBJECTID": 140, "NAME": "Rutgers Community Health Center", "ADDRESS": "65 BERGEN ST", "CITY": "NEWARK", "STATE": "NJ", "ZIP": "07107", "TELEPHONE": "973-972-9620", "ALT_PHONE": null, "TYPE": "FEDERALLY QUALIFIED HEALTH CENTERS", "COUNTY": "ESSEX", "COUNTYFIPS": "34013", "ST_FIPS": "34", "COUNTRY": "US", "REGION": "NORTH EAST", "LATITUDE": 40.74324647, "LONGITUDE": -74.19095066, "STATE_ID": null, "NAICS_CODE": null, "OWNER": null, "TTL_STAFF": null, "BEDS": 9999999, "TRAUMA": null }, "geometry": { "type": "Point", "coordinates": [ -74.190950659608745, 40.743246469875771 ] } },
{ "type": "Feature", "properties": { "OBJECTID": 141, "NAME": "Saint James Health", "ADDRESS": "228 LAFAYETTE ST", "CITY": "NEWARK", "STATE": "NJ", "ZIP": "07105", "TELEPHONE": "973-789-8111", "ALT_PHONE": null, "TYPE": "FEDERALLY QUALIFIED HEALTH CENTERS", "COUNTY": "ESSEX", "COUNTYFIPS": "34013", "ST_FIPS": "34", "COUNTRY": "US", "REGION": "NORTH EAST", "LATITUDE": 40.72907033, "LONGITUDE": -74.16269903, "STATE_ID": null, "NAICS_CODE": null, "OWNER": null, "TTL_STAFF": null, "BEDS": 9999999, "TRAUMA": null }, "geometry": { "type": "Point", "coordinates": [ -74.162699030412853, 40.729070329762969 ] } },
{ "type": "Feature", "properties": { "OBJECTID": 142, "NAME": "Teen Health Center - Malcolm X Shabazz", "ADDRESS": "80 JOHNSON AVENUE", "CITY": "NEWARK", "STATE": "NJ", "ZIP": "07108", "TELEPHONE": "973-623-8592", "ALT_PHONE": null, "TYPE": "FEDERALLY QUALIFIED HEALTH CENTERS", "COUNTY": "ESSEX", "COUNTYFIPS": "34013", "ST_FIPS": "34", "COUNTRY": "US", "REGION": "NORTH EAST", "LATITUDE": 40.71942461, "LONGITUDE": -74.19192903, "STATE_ID": null, "NAICS_CODE": null, "OWNER": null, "TTL_STAFF": null, "BEDS": 9999999, "TRAUMA": null }, "geometry": { "type": "Point", "coordinates": [ -74.191929029761141, 40.719424610291085 ] } },
{ "type": "Feature", "properties": { "OBJECTID": 143, "NAME": "The Bear Zone at Barringer High School", "ADDRESS": "90 PARKER STREET", "CITY": "NEWARK", "STATE": "NJ", "ZIP": "07104", "TELEPHONE": "973-497-5751", "ALT_PHONE": null, "TYPE": "FEDERALLY QUALIFIED HEALTH CENTERS", "COUNTY": "ESSEX", "COUNTYFIPS": "34013", "ST_FIPS": "34", "COUNTRY": "US", "REGION": "NORTH EAST", "LATITUDE": 40.75651739, "LONGITUDE": -74.17907817, "STATE_ID": null, "NAICS_CODE": null, "OWNER": null, "TTL_STAFF": null, "BEDS": 9999999, "TRAUMA": null }, "geometry": { "type": "Point", "coordinates": [ -74.179078169753254, 40.756517390305639 ] } },
{ "type": "Feature", "properties": { "OBJECTID": 144, "NAME": "The Health Place at Quitman Street School", "ADDRESS": "21 QUITMAN STREET", "CITY": "NEWARK", "STATE": "NJ", "ZIP": "07103", "TELEPHONE": "973-424-4329", "ALT_PHONE": null, "TYPE": "FEDERALLY QUALIFIED HEALTH CENTERS", "COUNTY": "ESSEX", "COUNTYFIPS": "34013", "ST_FIPS": "34", "COUNTRY": "US", "REGION": "NORTH EAST", "LATITUDE": 40.73000093, "LONGITUDE": -74.18337076, "STATE_ID": null, "NAICS_CODE": null, "OWNER": null, "TTL_STAFF": null, "BEDS": 9999999, "TRAUMA": null }, "geometry": { "type": "Point", "coordinates": [ -74.183370759974409, 40.730000930429007 ] } },
{ "type": "Feature", "properties": { "OBJECTID": 145, "NAME": "The Rainbow Room - Dayton Street School", "ADDRESS": "226 DAYTON STREET", "CITY": "NEWARK", "STATE": "NJ", "ZIP": "07114", "TELEPHONE": "973-733-8781", "ALT_PHONE": null, "TYPE": "FEDERALLY QUALIFIED HEALTH CENTERS", "COUNTY": "ESSEX", "COUNTYFIPS": "34013", "ST_FIPS": "34", "COUNTRY": "US", "REGION": "NORTH EAST", "LATITUDE": 40.69441882, "LONGITUDE": -74.20373745000001, "STATE_ID": null, "NAICS_CODE": null, "OWNER": null, "TTL_STAFF": null, "BEDS": 9999999, "TRAUMA": null }, "geometry": { "type": "Point", "coordinates": [ -74.203737449861421, 40.694418820348076 ] } },
{ "type": "Feature", "properties": { "OBJECTID": 146, "NAME": "Catholic Community Services - Mount Carmel Guild", "ADDRESS": "58 FREEMAN STREET", "CITY": "NEWARK", "STATE": "NJ", "ZIP": "07105", "TELEPHONE": "973-596-4190", "ALT_PHONE": null, "TYPE": "NON ACUTE CARE HOSPITALS", "COUNTY": "ESSEX", "COUNTYFIPS": "34013", "ST_FIPS": "34", "COUNTRY": "US", "REGION": "NORTH EAST", "LATITUDE": 40.73687567, "LONGITUDE": -74.16959482, "STATE_ID": null, "NAICS_CODE": null, "OWNER": null, "TTL_STAFF": null, "BEDS": 9999999, "TRAUMA": null }, "geometry": { "type": "Point", "coordinates": [ -74.169594820510568, 40.736875669881101 ] } },
{ "type": "Feature", "properties": { "OBJECTID": 147, "NAME": "Columbus Hospital", "ADDRESS": "495 N 13TH ST", "CITY": "NEWARK", "STATE": "NJ", "ZIP": "07107", "TELEPHONE": "973-268-1400", "ALT_PHONE": "973-877-5000", "TYPE": "NON ACUTE CARE HOSPITALS", "COUNTY": "ESSEX", "COUNTYFIPS": "34013", "ST_FIPS": "34", "COUNTRY": "US", "REGION": "NORTH EAST", "LATITUDE": 40.77292545, "LONGITUDE": -74.18700032, "STATE_ID": null, "NAICS_CODE": null, "OWNER": null, "TTL_STAFF": null, "BEDS": 0, "TRAUMA": null }, "geometry": { "type": "Point", "coordinates": [ -74.187000320235981, 40.772925450408927 ] } },
{ "type": "Feature", "properties": { "OBJECTID": 148, "NAME": "The Health Center at Central High School", "ADDRESS": "246 18TH AVE", "CITY": "NEWARK CITY", "STATE": "NJ", "ZIP": "07108", "TELEPHONE": null, "ALT_PHONE": null, "TYPE": "FEDERALLY QUALIFIED HEALTH CENTERS", "COUNTY": "ESSEX", "COUNTYFIPS": "34013", "ST_FIPS": "34", "COUNTRY": "US", "REGION": "NORTH EAST", "LATITUDE": 40.72946391, "LONGITUDE": -74.19253973, "STATE_ID": null, "NAICS_CODE": null, "OWNER": null, "TTL_STAFF": null, "BEDS": 9999999, "TRAUMA": null }, "geometry": { "type": "Point", "coordinates": [ -74.192539729718291, 40.729463910382457 ] } },
{ "type": "Feature", "properties": { "OBJECTID": 149, "NAME": "Kids' Corner - Downe Elementary School", "ADDRESS": "ROUTE 553", "CITY": "NEWPORT", "STATE": "NJ", "ZIP": "08345", "TELEPHONE": "856-447-3227", "ALT_PHONE": null, "TYPE": "FEDERALLY QUALIFIED HEALTH CENTERS", "COUNTY": "CUMBERLAND", "COUNTYFIPS": "34011", "ST_FIPS": "34", "COUNTRY": "US", "REGION": "SOUTH", "LATITUDE": 39.30569106, "LONGITUDE": -75.15942058, "STATE_ID": null, "NAICS_CODE": null, "OWNER": null, "TTL_STAFF": null, "BEDS": 9999999, "TRAUMA": null }, "geometry": { "type": "Point", "coordinates": [ -75.159420579623671, 39.305691060350568 ] } },
{ "type": "Feature", "properties": { "OBJECTID": 150, "NAME": "Newton Medical Center", "ADDRESS": "175 HIGH STREET", "CITY": "NEWTON", "STATE": "NJ", "ZIP": "07860", "TELEPHONE": "973-383-2121", "ALT_PHONE": "973-579-8645", "TYPE": "ACUTE CARE HOSPITALS", "COUNTY": "SUSSEX", "COUNTYFIPS": "34037", "ST_FIPS": "34", "COUNTRY": "US", "REGION": "NORTH WEST", "LATITUDE": 41.057554, "LONGITUDE": -74.768321, "STATE_ID": null, "NAICS_CODE": null, "OWNER": null, "TTL_STAFF": null, "BEDS": 148, "TRAUMA": null }, "geometry": { "type": "Point", "coordinates": [ -74.768320999928903, 41.057553999872056 ] } },
{ "type": "Feature", "properties": { "OBJECTID": 151, "NAME": "Neighborhood Health Center - Newton", "ADDRESS": "238 SPRING STREET", "CITY": "NEWTON", "STATE": "NJ", "ZIP": "07860", "TELEPHONE": "973-383-7001", "ALT_PHONE": null, "TYPE": "FEDERALLY QUALIFIED HEALTH CENTERS", "COUNTY": "SUSSEX", "COUNTYFIPS": "34037", "ST_FIPS": "34", "COUNTRY": "US", "REGION": "NORTH WEST", "LATITUDE": 41.05599568, "LONGITUDE": -74.74955553, "STATE_ID": null, "NAICS_CODE": null, "OWNER": null, "TTL_STAFF": null, "BEDS": 9999999, "TRAUMA": null }, "geometry": { "type": "Point", "coordinates": [ -74.749555529564631, 41.055995680129485 ] } },
{ "type": "Feature", "properties": { "OBJECTID": 152, "NAME": "Palisades Medical Center", "ADDRESS": "7600 RIVER ROAD", "CITY": "NORTH BERGEN", "STATE": "NJ", "ZIP": "07047", "TELEPHONE": "201-854-5000", "ALT_PHONE": null, "TYPE": "ACUTE CARE HOSPITALS", "COUNTY": "HUDSON", "COUNTYFIPS": "34017", "ST_FIPS": "34", "COUNTRY": "US", "REGION": "NORTH EAST", "LATITUDE": 40.79377994, "LONGITUDE": -73.99644698, "STATE_ID": null, "NAICS_CODE": null, "OWNER": null, "TTL_STAFF": null, "BEDS": 202, "TRAUMA": null }, "geometry": { "type": "Point", "coordinates": [ -73.996446979759668, 40.793779940230493 ] } },
{ "type": "Feature", "properties": { "OBJECTID": 153, "NAME": "NHCAC North Bergen", "ADDRESS": "1116 43RD STREET", "CITY": "NORTH BERGEN", "STATE": "NJ", "ZIP": "07047", "TELEPHONE": "201-330-2632", "ALT_PHONE": null, "TYPE": "FEDERALLY QUALIFIED HEALTH CENTERS", "COUNTY": "HUDSON", "COUNTYFIPS": "34017", "ST_FIPS": "34", "COUNTRY": "US", "REGION": "NORTH EAST", "LATITUDE": 40.77970822, "LONGITUDE": -74.02683086, "STATE_ID": null, "NAICS_CODE": null, "OWNER": null, "TTL_STAFF": null, "BEDS": 9999999, "TRAUMA": null }, "geometry": { "type": "Point", "coordinates": [ -74.026830860464997, 40.779708219558394 ] } },
{ "type": "Feature", "properties": { "OBJECTID": 154, "NAME": "Raritan Bay Medical Center - Old Bridge", "ADDRESS": "1 HOSPITAL PLAZA", "CITY": "OLD BRIDGE", "STATE": "NJ", "ZIP": "08857", "TELEPHONE": "732-360-1000", "ALT_PHONE": "732-442-3700", "TYPE": "ACUTE CARE HOSPITALS", "COUNTY": "MIDDLESEX", "COUNTYFIPS": "34023", "ST_FIPS": "34", "COUNTRY": "US", "REGION": "CENTRAL EAST", "LATITUDE": 40.38316349, "LONGITUDE": -74.32338057, "STATE_ID": null, "NAICS_CODE": null, "OWNER": null, "TTL_STAFF": null, "BEDS": 119, "TRAUMA": null }, "geometry": { "type": "Point", "coordinates": [ -74.323380570322072, 40.383163490361717 ] } },
{ "type": "Feature", "properties": { "OBJECTID": 155, "NAME": "Orange Community Health Center", "ADDRESS": "37 NORTH DAY STREET", "CITY": "ORANGE", "STATE": "NJ", "ZIP": "07050", "TELEPHONE": "973-395-2611", "ALT_PHONE": null, "TYPE": "FEDERALLY QUALIFIED HEALTH CENTERS", "COUNTY": "ESSEX", "COUNTYFIPS": "34013", "ST_FIPS": "34", "COUNTRY": "US", "REGION": "NORTH EAST", "LATITUDE": 40.77328733, "LONGITUDE": -74.22889513, "STATE_ID": null, "NAICS_CODE": null, "OWNER": null, "TTL_STAFF": null, "BEDS": 9999999, "TRAUMA": null }, "geometry": { "type": "Point", "coordinates": [ -74.228895129711645, 40.773287330065621 ] } },
{ "type": "Feature", "properties": { "OBJECTID": 156, "NAME": "Bergen Regional Medical Center L.P.", "ADDRESS": "230 EAST RIDGEWOOD AVENUE", "CITY": "PARAMUS", "STATE": "NJ", "ZIP": "07652", "TELEPHONE": "201-967-4000", "ALT_PHONE": null, "TYPE": "ACUTE CARE HOSPITALS", "COUNTY": "BERGEN", "COUNTYFIPS": "34003", "ST_FIPS": "34", "COUNTRY": "US", "REGION": "NORTH EAST", "LATITUDE": 40.956363, "LONGITUDE": -74.062517, "STATE_ID": null, "NAICS_CODE": null, "OWNER": null, "TTL_STAFF": null, "BEDS": 1070, "TRAUMA": null }, "geometry": { "type": "Point", "coordinates": [ -74.062516999728686, 40.956362999813557 ] } },
{ "type": "Feature", "properties": { "OBJECTID": 157, "NAME": "St. Mary's Hospital", "ADDRESS": "350 BOULEVARD", "CITY": "PASSAIC", "STATE": "NJ", "ZIP": "07055", "TELEPHONE": "973-365-4300", "ALT_PHONE": null, "TYPE": "ACUTE CARE HOSPITALS", "COUNTY": "PASSAIC", "COUNTYFIPS": "34031", "ST_FIPS": "34", "COUNTRY": "US", "REGION": "NORTH WEST", "LATITUDE": 40.859172, "LONGITUDE": -74.137781, "STATE_ID": null, "NAICS_CODE": null, "OWNER": null, "TTL_STAFF": null, "BEDS": 220, "TRAUMA": null }, "geometry": { "type": "Point", "coordinates": [ -74.137780999462791, 40.859171999667112 ] } },
{ "type": "Feature", "properties": { "OBJECTID": 158, "NAME": "NHCAC CHC at 8th Street Passaic", "ADDRESS": "148 8TH STREET", "CITY": "PASSAIC", "STATE": "NJ", "ZIP": "07055", "TELEPHONE": "973-470-3033", "ALT_PHONE": null, "TYPE": "FEDERALLY QUALIFIED HEALTH CENTERS", "COUNTY": "PASSAIC", "COUNTYFIPS": "34031", "ST_FIPS": "34", "COUNTRY": "US", "REGION": "NORTH WEST", "LATITUDE": 40.85855023, "LONGITUDE": -74.11002764, "STATE_ID": null, "NAICS_CODE": null, "OWNER": null, "TTL_STAFF": null, "BEDS": 9999999, "TRAUMA": null }, "geometry": { "type": "Point", "coordinates": [ -74.110027640110758, 40.858550230298569 ] } },
{ "type": "Feature", "properties": { "OBJECTID": 159, "NAME": "NHCAC CHC at Passaic", "ADDRESS": "110 MAIN AVENUE", "CITY": "PASSAIC", "STATE": "NJ", "ZIP": "07055", "TELEPHONE": "973-777-0256", "ALT_PHONE": null, "TYPE": "FEDERALLY QUALIFIED HEALTH CENTERS", "COUNTY": "PASSAIC", "COUNTYFIPS": "34031", "ST_FIPS": "34", "COUNTRY": "US", "REGION": "NORTH WEST", "LATITUDE": 40.84346521, "LONGITUDE": -74.12960916, "STATE_ID": null, "NAICS_CODE": null, "OWNER": null, "TTL_STAFF": null, "BEDS": 9999999, "TRAUMA": null }, "geometry": { "type": "Point", "coordinates": [ -74.129609159799713, 40.843465209675891 ] } },
{ "type": "Feature", "properties": { "OBJECTID": 160, "NAME": "St. Joseph's Regional Medical Center", "ADDRESS": "703 MAIN STREET", "CITY": "PATERSON", "STATE": "NJ", "ZIP": "07503", "TELEPHONE": "973-754-2000", "ALT_PHONE": "973-754-2025", "TYPE": "ACUTE CARE HOSPITALS", "COUNTY": "PASSAIC", "COUNTYFIPS": "34031", "ST_FIPS": "34", "COUNTRY": "US", "REGION": "NORTH WEST", "LATITUDE": 40.902598, "LONGITUDE": -74.165595, "STATE_ID": null, "NAICS_CODE": null, "OWNER": null, "TTL_STAFF": null, "BEDS": 660, "TRAUMA": "Level II" }, "geometry": { "type": "Point", "coordinates": [ -74.165595000258804, 40.902598000420895 ] } },
{ "type": "Feature", "properties": { "OBJECTID": 161, "NAME": "Paterson Community Health Center", "ADDRESS": "32 CLINTON STREET", "CITY": "PATERSON", "STATE": "NJ", "ZIP": "07522", "TELEPHONE": "973-790-6594", "ALT_PHONE": null, "TYPE": "FEDERALLY QUALIFIED HEALTH CENTERS", "COUNTY": "PASSAIC", "COUNTYFIPS": "34031", "ST_FIPS": "34", "COUNTRY": "US", "REGION": "NORTH WEST", "LATITUDE": 40.92411809, "LONGITUDE": -74.17216514, "STATE_ID": null, "NAICS_CODE": null, "OWNER": null, "TTL_STAFF": null, "BEDS": 9999999, "TRAUMA": null }, "geometry": { "type": "Point", "coordinates": [ -74.172165139905999, 40.924118090082793 ] } },
{ "type": "Feature", "properties": { "OBJECTID": 162, "NAME": "Paterson Community Health Center", "ADDRESS": "227 BROADWAY", "CITY": "PATERSON", "STATE": "NJ", "ZIP": "07501", "TELEPHONE": "973-278-2600", "ALT_PHONE": null, "TYPE": "FEDERALLY QUALIFIED HEALTH CENTERS", "COUNTY": "PASSAIC", "COUNTYFIPS": "34031", "ST_FIPS": "34", "COUNTRY": "US", "REGION": "NORTH WEST", "LATITUDE": 40.91876139, "LONGITUDE": -74.16526336, "STATE_ID": null, "NAICS_CODE": null, "OWNER": null, "TTL_STAFF": null, "BEDS": 9999999, "TRAUMA": null }, "geometry": { "type": "Point", "coordinates": [ -74.165263359967852, 40.918761390146159 ] } },
{ "type": "Feature", "properties": { "OBJECTID": 163, "NAME": "CAMcare Paulsboro", "ADDRESS": "1315 NORTH DELAWARE STREET", "CITY": "PAULSBORO", "STATE": "NJ", "ZIP": "08066", "TELEPHONE": "856-687-2200", "ALT_PHONE": null, "TYPE": "FEDERALLY QUALIFIED HEALTH CENTERS", "COUNTY": "GLOUCESTER", "COUNTYFIPS": "34015", "ST_FIPS": "34", "COUNTRY": "US", "REGION": "SOUTH", "LATITUDE": 39.83111017, "LONGITUDE": -75.24107125, "STATE_ID": null, "NAICS_CODE": null, "OWNER": null, "TTL_STAFF": null, "BEDS": 9999999, "TRAUMA": null }, "geometry": { "type": "Point", "coordinates": [ -75.241071249754313, 39.831110169853758 ] } },
{ "type": "Feature", "properties": { "OBJECTID": 164, "NAME": "The Matheny School and Hospital", "ADDRESS": "HIGHLAND AVE   ST", "CITY": "PEAPACK", "STATE": "NJ", "ZIP": "07934", "TELEPHONE": "908-234-0011", "ALT_PHONE": null, "TYPE": "NON ACUTE CARE HOSPITALS", "COUNTY": "SOMERSET", "COUNTYFIPS": "34035", "ST_FIPS": "34", "COUNTRY": "US", "REGION": "CENTRAL WEST", "LATITUDE": 40.71262337, "LONGITUDE": -74.64067943000001, "STATE_ID": null, "NAICS_CODE": null, "OWNER": null, "TTL_STAFF": null, "BEDS": 9999999, "TRAUMA": null }, "geometry": { "type": "Point", "coordinates": [ -74.640679430154293, 40.712623370286124 ] } },
{ "type": "Feature", "properties": { "OBJECTID": 165, "NAME": "Southern Jersey Family Medical Center - Buttonwood", "ADDRESS": "600 PEMBERTON-BROWNS MILLS ROAD", "CITY": "PEMBERTON", "STATE": "NJ", "ZIP": "08064", "TELEPHONE": "609-894-1100", "ALT_PHONE": null, "TYPE": "FEDERALLY QUALIFIED HEALTH CENTERS", "COUNTY": "BURLINGTON", "COUNTYFIPS": "34005", "ST_FIPS": "34", "COUNTRY": "US", "REGION": "SOUTH", "LATITUDE": 39.96948764, "LONGITUDE": -74.67032628, "STATE_ID": null, "NAICS_CODE": null, "OWNER": null, "TTL_STAFF": null, "BEDS": 9999999, "TRAUMA": null }, "geometry": { "type": "Point", "coordinates": [ -74.670326280403117, 39.969487639809543 ] } },
{ "type": "Feature", "properties": { "OBJECTID": 166, "NAME": "Raritan Bay Medical Center - Perth Amboy", "ADDRESS": "530 NEW BRUNSWICK AVE", "CITY": "PERTH AMBOY", "STATE": "NJ", "ZIP": "08861", "TELEPHONE": "732-442-3700", "ALT_PHONE": null, "TYPE": "ACUTE CARE HOSPITALS", "COUNTY": "MIDDLESEX", "COUNTYFIPS": "34023", "ST_FIPS": "34", "COUNTRY": "US", "REGION": "CENTRAL EAST", "LATITUDE": 40.519174, "LONGITUDE": -74.280924, "STATE_ID": null, "NAICS_CODE": null, "OWNER": null, "TTL_STAFF": null, "BEDS": 388, "TRAUMA": null }, "geometry": { "type": "Point", "coordinates": [ -74.280924000494508, 40.519173999993285 ] } },
{ "type": "Feature", "properties": { "OBJECTID": 167, "NAME": "Jewish Renaissance Foundation-Community Action Agency", "ADDRESS": "149 KEARNY AVE", "CITY": "PERTH AMBOY", "STATE": "NJ", "ZIP": "08861", "TELEPHONE": "732-324-2114X124", "ALT_PHONE": null, "TYPE": "FEDERALLY QUALIFIED HEALTH CENTERS", "COUNTY": "MIDDLESEX", "COUNTYFIPS": "34023", "ST_FIPS": "34", "COUNTRY": "US", "REGION": "CENTRAL EAST", "LATITUDE": 40.50368604, "LONGITUDE": -74.2688393, "STATE_ID": null, "NAICS_CODE": null, "OWNER": null, "TTL_STAFF": null, "BEDS": 9999999, "TRAUMA": null }, "geometry": { "type": "Point", "coordinates": [ -74.268839300138879, 40.503686041203096 ] } },
{ "type": "Feature", "properties": { "OBJECTID": 168, "NAME": "Jewish Renaissance Medical Center", "ADDRESS": "275A  HOBART STREET", "CITY": "PERTH AMBOY", "STATE": "NJ", "ZIP": "08861", "TELEPHONE": "732-376-9333", "ALT_PHONE": "732-376-6655", "TYPE": "FEDERALLY QUALIFIED HEALTH CENTERS", "COUNTY": "MIDDLESEX", "COUNTYFIPS": "34023", "ST_FIPS": "34", "COUNTRY": "US", "REGION": "CENTRAL EAST", "LATITUDE": 40.50850433, "LONGITUDE": -74.26936223, "STATE_ID": null, "NAICS_CODE": null, "OWNER": null, "TTL_STAFF": null, "BEDS": 9999999, "TRAUMA": null }, "geometry": { "type": "Point", "coordinates": [ -74.269362230388666, 40.508504330613825 ] } },
{ "type": "Feature", "properties": { "OBJECTID": 169, "NAME": "Jewish Renaissance Medical Center Dental/Medical Mobile Van", "ADDRESS": "275 HOBART STREET", "CITY": "PERTH AMBOY", "STATE": "NJ", "ZIP": "08861", "TELEPHONE": "732-376-6632", "ALT_PHONE": null, "TYPE": "FEDERALLY QUALIFIED HEALTH CENTERS", "COUNTY": "MIDDLESEX", "COUNTYFIPS": "34023", "ST_FIPS": "34", "COUNTRY": "US", "REGION": "CENTRAL EAST", "LATITUDE": 40.50851332, "LONGITUDE": -74.26935558, "STATE_ID": null, "NAICS_CODE": null, "OWNER": null, "TTL_STAFF": null, "BEDS": 9999999, "TRAUMA": null }, "geometry": { "type": "Point", "coordinates": [ -74.269355580017304, 40.508513320935364 ] } },
{ "type": "Feature", "properties": { "OBJECTID": 170, "NAME": "Care One at Raritan Bay Medical Center", "ADDRESS": "530 NEW BRUNSWICK AVE", "CITY": "PERTH AMBOY", "STATE": "NJ", "ZIP": "08861", "TELEPHONE": null, "ALT_PHONE": null, "TYPE": "NON ACUTE CARE HOSPITALS", "COUNTY": "MIDDLESEX", "COUNTYFIPS": "34023", "ST_FIPS": "34", "COUNTRY": "US", "REGION": "CENTRAL EAST", "LATITUDE": 40.52124871, "LONGITUDE": -74.28595792, "STATE_ID": null, "NAICS_CODE": null, "OWNER": null, "TTL_STAFF": null, "BEDS": 9999999, "TRAUMA": null }, "geometry": { "type": "Point", "coordinates": [ -74.285957919426636, 40.521248710424899 ] } },
{ "type": "Feature", "properties": { "OBJECTID": 171, "NAME": "St Luke's Warren Hospital", "ADDRESS": "185 ROSEBERRY ST.", "CITY": "PHILLIPSBURG", "STATE": "NJ", "ZIP": "08865", "TELEPHONE": "908-859-6800", "ALT_PHONE": "908-859-6800", "TYPE": "ACUTE CARE HOSPITALS", "COUNTY": "WARREN", "COUNTYFIPS": "34041", "ST_FIPS": "34", "COUNTRY": "US", "REGION": "NORTH WEST", "LATITUDE": 40.702045, "LONGITUDE": -75.178457, "STATE_ID": null, "NAICS_CODE": null, "OWNER": null, "TTL_STAFF": null, "BEDS": 214, "TRAUMA": null }, "geometry": { "type": "Point", "coordinates": [ -75.178456999591646, 40.702044999557387 ] } },
{ "type": "Feature", "properties": { "OBJECTID": 172, "NAME": "Neighborhood Health Center - Phillipsburg", "ADDRESS": "427 N MAIN ST", "CITY": "PHILLIPSBURG", "STATE": "NJ", "ZIP": "08865", "TELEPHONE": "908-454-4600", "ALT_PHONE": null, "TYPE": "FEDERALLY QUALIFIED HEALTH CENTERS", "COUNTY": "WARREN", "COUNTYFIPS": "34041", "ST_FIPS": "34", "COUNTRY": "US", "REGION": "NORTH WEST", "LATITUDE": 40.70054037, "LONGITUDE": -75.19549087, "STATE_ID": null, "NAICS_CODE": null, "OWNER": null, "TTL_STAFF": null, "BEDS": 9999999, "TRAUMA": null }, "geometry": { "type": "Point", "coordinates": [ -75.19549086999281, 40.700540370282191 ] } },
{ "type": "Feature", "properties": { "OBJECTID": 173, "NAME": "University Behavioral Healthcare", "ADDRESS": "671 HOES LANE", "CITY": "PISCATAWAY", "STATE": "NJ", "ZIP": "08854", "TELEPHONE": "609-969-5300", "ALT_PHONE": null, "TYPE": "NON ACUTE CARE HOSPITALS", "COUNTY": "MIDDLESEX", "COUNTYFIPS": "34023", "ST_FIPS": "34", "COUNTRY": "US", "REGION": "CENTRAL EAST", "LATITUDE": 40.524858, "LONGITUDE": -74.469387, "STATE_ID": null, "NAICS_CODE": null, "OWNER": null, "TTL_STAFF": null, "BEDS": 9999999, "TRAUMA": null }, "geometry": { "type": "Point", "coordinates": [ -74.469386999440644, 40.524857999865326 ] } },
{ "type": "Feature", "properties": { "OBJECTID": 174, "NAME": "Clinton Elementary School", "ADDRESS": "CLINTON AVE AND W 4TH ST", "CITY": "PLAINFIELD", "STATE": "NJ", "ZIP": "07063", "TELEPHONE": "908-731-4288", "ALT_PHONE": null, "TYPE": "FEDERALLY QUALIFIED HEALTH CENTERS", "COUNTY": "UNION", "COUNTYFIPS": "34039", "ST_FIPS": "34", "COUNTRY": "US", "REGION": "CENTRAL EAST", "LATITUDE": 40.59914011, "LONGITUDE": -74.44093778, "STATE_ID": null, "NAICS_CODE": null, "OWNER": null, "TTL_STAFF": null, "BEDS": 9999999, "TRAUMA": null }, "geometry": { "type": "Point", "coordinates": [ -74.44093777955851, 40.599140110238231 ] } },
{ "type": "Feature", "properties": { "OBJECTID": 175, "NAME": "Jefferson Elementary School", "ADDRESS": "1200 MYRTLE AVENUE", "CITY": "PLAINFIELD", "STATE": "NJ", "ZIP": "07063", "TELEPHONE": "908-731-4288", "ALT_PHONE": null, "TYPE": "FEDERALLY QUALIFIED HEALTH CENTERS", "COUNTY": "UNION", "COUNTYFIPS": "34039", "ST_FIPS": "34", "COUNTRY": "US", "REGION": "CENTRAL EAST", "LATITUDE": 40.60469756, "LONGITUDE": -74.44723276000001, "STATE_ID": null, "NAICS_CODE": null, "OWNER": null, "TTL_STAFF": null, "BEDS": 9999999, "TRAUMA": null }, "geometry": { "type": "Point", "coordinates": [ -74.447232760388673, 40.604697560304253 ] } },
{ "type": "Feature", "properties": { "OBJECTID": 176, "NAME": "Neighborhood Health Center - Cardinal", "ADDRESS": "950 PARK AVENUE", "CITY": "PLAINFIELD", "STATE": "NJ", "ZIP": "07060", "TELEPHONE": "908-754-5840", "ALT_PHONE": null, "TYPE": "FEDERALLY QUALIFIED HEALTH CENTERS", "COUNTY": "UNION", "COUNTYFIPS": "34039", "ST_FIPS": "34", "COUNTRY": "US", "REGION": "CENTRAL EAST", "LATITUDE": 40.61195589, "LONGITUDE": -74.41223053, "STATE_ID": null, "NAICS_CODE": null, "OWNER": null, "TTL_STAFF": null, "BEDS": 9999999, "TRAUMA": null }, "geometry": { "type": "Point", "coordinates": [ -74.412230530574234, 40.611955890394945 ] } },
{ "type": "Feature", "properties": { "OBJECTID": 177, "NAME": "Neighborhood Health Center - The Healthy Place", "ADDRESS": "427 DARROW AVENUE", "CITY": "PLAINFIELD", "STATE": "NJ", "ZIP": "07060", "TELEPHONE": "908-731-4288", "ALT_PHONE": null, "TYPE": "FEDERALLY QUALIFIED HEALTH CENTERS", "COUNTY": "UNION", "COUNTYFIPS": "34039", "ST_FIPS": "34", "COUNTRY": "US", "REGION": "CENTRAL EAST", "LATITUDE": 40.60708959, "LONGITUDE": -74.4314268, "STATE_ID": null, "NAICS_CODE": null, "OWNER": null, "TTL_STAFF": null, "BEDS": 9999999, "TRAUMA": null }, "geometry": { "type": "Point", "coordinates": [ -74.431426800336922, 40.607089590353112 ] } },
{ "type": "Feature", "properties": { "OBJECTID": 178, "NAME": "Neighborhood Health Services - Plainfield", "ADDRESS": "1700-58 MYRTLE AVENUE", "CITY": "PLAINFIELD", "STATE": "NJ", "ZIP": "07063", "TELEPHONE": "908-753-6401", "ALT_PHONE": null, "TYPE": "FEDERALLY QUALIFIED HEALTH CENTERS", "COUNTY": "UNION", "COUNTYFIPS": "34039", "ST_FIPS": "34", "COUNTRY": "US", "REGION": "CENTRAL EAST", "LATITUDE": 40.59950884, "LONGITUDE": -74.45525498000001, "STATE_ID": null, "NAICS_CODE": null, "OWNER": null, "TTL_STAFF": null, "BEDS": 9999999, "TRAUMA": null }, "geometry": { "type": "Point", "coordinates": [ -74.455254979936115, 40.599508839764624 ] } },
{ "type": "Feature", "properties": { "OBJECTID": 179, "NAME": "Stillman Elementary School", "ADDRESS": "201 W. 4TH STREET", "CITY": "PLAINFIELD", "STATE": "NJ", "ZIP": "07060", "TELEPHONE": "908-731-4288", "ALT_PHONE": null, "TYPE": "FEDERALLY QUALIFIED HEALTH CENTERS", "COUNTY": "UNION", "COUNTYFIPS": "34039", "ST_FIPS": "34", "COUNTRY": "US", "REGION": "CENTRAL EAST", "LATITUDE": 40.61595546, "LONGITUDE": -74.42163401000001, "STATE_ID": null, "NAICS_CODE": null, "OWNER": null, "TTL_STAFF": null, "BEDS": 9999999, "TRAUMA": null }, "geometry": { "type": "Point", "coordinates": [ -74.421634010512747, 40.61595546019943 ] } },
{ "type": "Feature", "properties": { "OBJECTID": 180, "NAME": "JFK-Muhlenberg SED", "ADDRESS": "1200 RANDOLPH ROAD", "CITY": "PLAINFIELD", "STATE": "NJ", "ZIP": "07061", "TELEPHONE": "908-668-2000", "ALT_PHONE": "732-321-7000", "TYPE": "SATELLITE EMERGENCY DEPARTMENTS", "COUNTY": "UNION", "COUNTYFIPS": "34039", "ST_FIPS": "34", "COUNTRY": "US", "REGION": "CENTRAL EAST", "LATITUDE": 40.60686882, "LONGITUDE": -74.40372052, "STATE_ID": null, "NAICS_CODE": null, "OWNER": null, "TTL_STAFF": null, "BEDS": 9999999, "TRAUMA": null }, "geometry": { "type": "Point", "coordinates": [ -74.403720520576996, 40.606868819719196 ] } },
{ "type": "Feature", "properties": { "OBJECTID": 181, "NAME": "University Medical Center of Princeton at Plainsboro", "ADDRESS": "1 PLAINSBORO RD", "CITY": "PLAINSBORO", "STATE": "NJ", "ZIP": "08536", "TELEPHONE": "609-853-6500", "ALT_PHONE": null, "TYPE": "ACUTE CARE HOSPITALS", "COUNTY": "MIDDLESEX", "COUNTYFIPS": "34023", "ST_FIPS": "34", "COUNTRY": "US", "REGION": "CENTRAL EAST", "LATITUDE": 40.33981297, "LONGITUDE": -74.62426829, "STATE_ID": null, "NAICS_CODE": null, "OWNER": null, "TTL_STAFF": null, "BEDS": 219, "TRAUMA": null }, "geometry": { "type": "Point", "coordinates": [ -74.624268289413962, 40.339812969641436 ] } },
{ "type": "Feature", "properties": { "OBJECTID": 182, "NAME": "Pleasantville Center", "ADDRESS": "932 SOUTH MAIN STREET", "CITY": "PLEASANTVILLE", "STATE": "NJ", "ZIP": "08232", "TELEPHONE": "609-383-0880", "ALT_PHONE": null, "TYPE": "FEDERALLY QUALIFIED HEALTH CENTERS", "COUNTY": "ATLANTIC", "COUNTYFIPS": "34001", "ST_FIPS": "34", "COUNTRY": "US", "REGION": "SOUTH", "LATITUDE": 39.38308928, "LONGITUDE": -74.53023347, "STATE_ID": null, "NAICS_CODE": null, "OWNER": null, "TTL_STAFF": null, "BEDS": 9999999, "TRAUMA": null }, "geometry": { "type": "Point", "coordinates": [ -74.530233469861116, 39.383089279651728 ] } },
{ "type": "Feature", "properties": { "OBJECTID": 183, "NAME": "Ocean Care SED", "ADDRESS": "1517 RICHMOND AVE", "CITY": "POINT PLEASANT", "STATE": "NJ", "ZIP": "08742", "TELEPHONE": null, "ALT_PHONE": null, "TYPE": "SATELLITE EMERGENCY DEPARTMENTS", "COUNTY": "OCEAN", "COUNTYFIPS": "34029", "ST_FIPS": "34", "COUNTRY": "US", "REGION": "CENTRAL EAST", "LATITUDE": 40.08205571, "LONGITUDE": -74.04966372, "STATE_ID": null, "NAICS_CODE": null, "OWNER": null, "TTL_STAFF": null, "BEDS": 9999999, "TRAUMA": null }, "geometry": { "type": "Point", "coordinates": [ -74.049663720370759, 40.082055710033266 ] } },
{ "type": "Feature", "properties": { "OBJECTID": 184, "NAME": "Atlanticare Regional Medical Center Mainland Division", "ADDRESS": "JIMMIE LEEDS ROAD", "CITY": "POMONA", "STATE": "NJ", "ZIP": "08240", "TELEPHONE": "609-652-1000", "ALT_PHONE": null, "TYPE": "ACUTE CARE HOSPITALS", "COUNTY": "ATLANTIC", "COUNTYFIPS": "34001", "ST_FIPS": "34", "COUNTRY": "US", "REGION": "SOUTH", "LATITUDE": 39.479029, "LONGITUDE": -74.540426, "STATE_ID": null, "NAICS_CODE": null, "OWNER": null, "TTL_STAFF": null, "BEDS": 349, "TRAUMA": null }, "geometry": { "type": "Point", "coordinates": [ -74.540426000075101, 39.479028999975661 ] } },
{ "type": "Feature", "properties": { "OBJECTID": 185, "NAME": "Bacharach Institute for Rehabilitation", "ADDRESS": "61 WEST JIMMIE LEEDS ROAD", "CITY": "POMONA", "STATE": "NJ", "ZIP": "08240", "TELEPHONE": "609-652-7000", "ALT_PHONE": null, "TYPE": "NON ACUTE CARE HOSPITALS", "COUNTY": "ATLANTIC", "COUNTYFIPS": "34001", "ST_FIPS": "34", "COUNTRY": "US", "REGION": "SOUTH", "LATITUDE": 39.478552, "LONGITUDE": -74.539172, "STATE_ID": null, "NAICS_CODE": null, "OWNER": null, "TTL_STAFF": null, "BEDS": 9999999, "TRAUMA": null }, "geometry": { "type": "Point", "coordinates": [ -74.539172000172925, 39.47855199992248 ] } },
{ "type": "Feature", "properties": { "OBJECTID": 186, "NAME": "Chilton Medical Center", "ADDRESS": "97 WEST PARKWAY", "CITY": "POMPTON PLAINS", "STATE": "NJ", "ZIP": "07444", "TELEPHONE": "973-831-5000", "ALT_PHONE": "888-244-5866", "TYPE": "ACUTE CARE HOSPITALS", "COUNTY": "MORRIS", "COUNTYFIPS": "34027", "ST_FIPS": "34", "COUNTRY": "US", "REGION": "NORTH WEST", "LATITUDE": 40.95869663, "LONGITUDE": -74.31020878, "STATE_ID": null, "NAICS_CODE": null, "OWNER": null, "TTL_STAFF": null, "BEDS": 9999999, "TRAUMA": null }, "geometry": { "type": "Point", "coordinates": [ -74.310208779416342, 40.958696630092895 ] } },
{ "type": "Feature", "properties": { "OBJECTID": 187, "NAME": "Princeton House Behavioral Health", "ADDRESS": "905 HERRONTOWN ROAD", "CITY": "PRINCETON", "STATE": "NJ", "ZIP": "08540", "TELEPHONE": "609-497-3300", "ALT_PHONE": "800-242-2500", "TYPE": "NON ACUTE CARE HOSPITALS", "COUNTY": "MERCER", "COUNTYFIPS": "34021", "ST_FIPS": "34", "COUNTRY": "US", "REGION": "CENTRAL WEST", "LATITUDE": 40.38856748, "LONGITUDE": -74.65345757, "STATE_ID": null, "NAICS_CODE": null, "OWNER": null, "TTL_STAFF": null, "BEDS": 9999999, "TRAUMA": null }, "geometry": { "type": "Point", "coordinates": [ -74.653457570400548, 40.38856747988563 ] } },
{ "type": "Feature", "properties": { "OBJECTID": 188, "NAME": "Robert Wood Johnson University Hospital at Rahway", "ADDRESS": "865 STONE STREET", "CITY": "RAHWAY", "STATE": "NJ", "ZIP": "07065", "TELEPHONE": "732-381-4200", "ALT_PHONE": null, "TYPE": "ACUTE CARE HOSPITALS", "COUNTY": "UNION", "COUNTYFIPS": "34039", "ST_FIPS": "34", "COUNTRY": "US", "REGION": "CENTRAL EAST", "LATITUDE": 40.613136, "LONGITUDE": -74.291272, "STATE_ID": null, "NAICS_CODE": null, "OWNER": null, "TTL_STAFF": null, "BEDS": 251, "TRAUMA": null }, "geometry": { "type": "Point", "coordinates": [ -74.291272000199911, 40.613135999790856 ] } },
{ "type": "Feature", "properties": { "OBJECTID": 189, "NAME": "Kindred Hospital New Jersey - Rahway", "ADDRESS": "865 STONE ST", "CITY": "RAHWAY", "STATE": "NJ", "ZIP": "07065", "TELEPHONE": null, "ALT_PHONE": null, "TYPE": "NON ACUTE CARE HOSPITALS", "COUNTY": "UNION", "COUNTYFIPS": "34039", "ST_FIPS": "34", "COUNTRY": "US", "REGION": "CENTRAL EAST", "LATITUDE": 40.61205006, "LONGITUDE": -74.29066925, "STATE_ID": null, "NAICS_CODE": null, "OWNER": null, "TTL_STAFF": null, "BEDS": 9999999, "TRAUMA": null }, "geometry": { "type": "Point", "coordinates": [ -74.290669249445884, 40.612050059586231 ] } },
{ "type": "Feature", "properties": { "OBJECTID": 190, "NAME": "Riverview Medical Center", "ADDRESS": "1 RIVERVIEW PLAZA", "CITY": "RED BANK", "STATE": "NJ", "ZIP": "07701", "TELEPHONE": "732-741-2700", "ALT_PHONE": "732-741-2700", "TYPE": "ACUTE CARE HOSPITALS", "COUNTY": "MONMOUTH", "COUNTYFIPS": "34025", "ST_FIPS": "34", "COUNTRY": "US", "REGION": "CENTRAL EAST", "LATITUDE": 40.353833, "LONGITUDE": -74.063453, "STATE_ID": null, "NAICS_CODE": null, "OWNER": null, "TTL_STAFF": null, "BEDS": 492, "TRAUMA": null }, "geometry": { "type": "Point", "coordinates": [ -74.06345300010436, 40.353832999714918 ] } },
{ "type": "Feature", "properties": { "OBJECTID": 191, "NAME": "Red Bank Community Health Center", "ADDRESS": "176 RIVERSIDE AVENUE", "CITY": "RED BANK", "STATE": "NJ", "ZIP": "07701", "TELEPHONE": "732-219-6620", "ALT_PHONE": "732-774-6333", "TYPE": "FEDERALLY QUALIFIED HEALTH CENTERS", "COUNTY": "MONMOUTH", "COUNTYFIPS": "34025", "ST_FIPS": "34", "COUNTRY": "US", "REGION": "CENTRAL EAST", "LATITUDE": 40.35375312, "LONGITUDE": -74.07561751, "STATE_ID": null, "NAICS_CODE": null, "OWNER": null, "TTL_STAFF": null, "BEDS": 9999999, "TRAUMA": null }, "geometry": { "type": "Point", "coordinates": [ -74.075617509666259, 40.353753119742997 ] } },
{ "type": "Feature", "properties": { "OBJECTID": 192, "NAME": "Valley Hospital", "ADDRESS": "223 NORTH VAN DIEN AVENUE", "CITY": "RIDGEWOOD", "STATE": "NJ", "ZIP": "07450", "TELEPHONE": "201-447-8000", "ALT_PHONE": "201-447-8004", "TYPE": "ACUTE CARE HOSPITALS", "COUNTY": "BERGEN", "COUNTYFIPS": "34003", "ST_FIPS": "34", "COUNTRY": "US", "REGION": "NORTH EAST", "LATITUDE": 40.98399156, "LONGITUDE": -74.10057668, "STATE_ID": null, "NAICS_CODE": null, "OWNER": null, "TTL_STAFF": null, "BEDS": 484, "TRAUMA": null }, "geometry": { "type": "Point", "coordinates": [ -74.100576679669629, 40.983991560030645 ] } },
{ "type": "Feature", "properties": { "OBJECTID": 193, "NAME": "Select Specialty Hospital Northeast New Jersey", "ADDRESS": "96 PARKWAY", "CITY": "ROCHELLE PARK", "STATE": "NJ", "ZIP": "07662", "TELEPHONE": null, "ALT_PHONE": null, "TYPE": "NON ACUTE CARE HOSPITALS", "COUNTY": "BERGEN", "COUNTYFIPS": "34003", "ST_FIPS": "34", "COUNTRY": "US", "REGION": "NORTH EAST", "LATITUDE": 40.89910542, "LONGITUDE": -74.07653548, "STATE_ID": null, "NAICS_CODE": null, "OWNER": null, "TTL_STAFF": null, "BEDS": 9999999, "TRAUMA": null }, "geometry": { "type": "Point", "coordinates": [ -74.076535479552007, 40.899105419619119 ] } },
{ "type": "Feature", "properties": { "OBJECTID": 194, "NAME": "Kessler Institute for Rehabilitation - North Facility", "ADDRESS": "300 MARKET STREET", "CITY": "SADDLE BROOK", "STATE": "NJ", "ZIP": "07663", "TELEPHONE": "201-587-8500", "ALT_PHONE": null, "TYPE": "NON ACUTE CARE HOSPITALS", "COUNTY": "BERGEN", "COUNTYFIPS": "34003", "ST_FIPS": "34", "COUNTRY": "US", "REGION": "NORTH EAST", "LATITUDE": 40.89609274, "LONGITUDE": -74.09267078000001, "STATE_ID": null, "NAICS_CODE": null, "OWNER": null, "TTL_STAFF": null, "BEDS": 9999999, "TRAUMA": null }, "geometry": { "type": "Point", "coordinates": [ -74.092670780331332, 40.896092739760427 ] } },
{ "type": "Feature", "properties": { "OBJECTID": 195, "NAME": "Memorial Hospital of Salem County", "ADDRESS": "310 WOODSTOWN RD", "CITY": "SALEM", "STATE": "NJ", "ZIP": "08079", "TELEPHONE": "856-935-1000", "ALT_PHONE": "856-935-6059", "TYPE": "ACUTE CARE HOSPITALS", "COUNTY": "SALEM", "COUNTYFIPS": "34033", "ST_FIPS": "34", "COUNTRY": "US", "REGION": "SOUTH", "LATITUDE": 39.59359, "LONGITUDE": -75.444524, "STATE_ID": null, "NAICS_CODE": null, "OWNER": null, "TTL_STAFF": null, "BEDS": 140, "TRAUMA": null }, "geometry": { "type": "Point", "coordinates": [ -75.444524000550302, 39.59358999994943 ] } },
{ "type": "Feature", "properties": { "OBJECTID": 196, "NAME": "Salem Center", "ADDRESS": "238 EAST BROADWAY", "CITY": "SALEM", "STATE": "NJ", "ZIP": "08079", "TELEPHONE": "856-935-7711", "ALT_PHONE": null, "TYPE": "FEDERALLY QUALIFIED HEALTH CENTERS", "COUNTY": "SALEM", "COUNTYFIPS": "34033", "ST_FIPS": "34", "COUNTRY": "US", "REGION": "SOUTH", "LATITUDE": 39.56738265, "LONGITUDE": -75.46257937, "STATE_ID": null, "NAICS_CODE": null, "OWNER": null, "TTL_STAFF": null, "BEDS": 9999999, "TRAUMA": null }, "geometry": { "type": "Point", "coordinates": [ -75.462579369724097, 39.567382649879505 ] } },
{ "type": "Feature", "properties": { "OBJECTID": 197, "NAME": "Colt Connection - Cumberland Regional High School", "ADDRESS": "90 SILVER LAKE ROAD", "CITY": "SEABROOK", "STATE": "NJ", "ZIP": "08302", "TELEPHONE": "856-451-9400", "ALT_PHONE": null, "TYPE": "FEDERALLY QUALIFIED HEALTH CENTERS", "COUNTY": "CUMBERLAND", "COUNTYFIPS": "34011", "ST_FIPS": "34", "COUNTRY": "US", "REGION": "SOUTH", "LATITUDE": 39.47262253, "LONGITUDE": -75.24856563, "STATE_ID": null, "NAICS_CODE": null, "OWNER": null, "TTL_STAFF": null, "BEDS": 9999999, "TRAUMA": null }, "geometry": { "type": "Point", "coordinates": [ -75.248565629550185, 39.472622529831668 ] } },
{ "type": "Feature", "properties": { "OBJECTID": 198, "NAME": "Meadowlands Hospital Medical Center", "ADDRESS": "55 MEADOWLANDS PARKWAY", "CITY": "SECAUCUS", "STATE": "NJ", "ZIP": "07096-1580", "TELEPHONE": "201-392-3200", "ALT_PHONE": null, "TYPE": "ACUTE CARE HOSPITALS", "COUNTY": "HUDSON", "COUNTYFIPS": "34017", "ST_FIPS": "34", "COUNTRY": "US", "REGION": "NORTH EAST", "LATITUDE": 40.79177602, "LONGITUDE": -74.07315308, "STATE_ID": null, "NAICS_CODE": null, "OWNER": null, "TTL_STAFF": null, "BEDS": 230, "TRAUMA": null }, "geometry": { "type": "Point", "coordinates": [ -74.073153079506554, 40.791776019553446 ] } },
{ "type": "Feature", "properties": { "OBJECTID": 199, "NAME": "Meadowview Psychiatric Hospital", "ADDRESS": "595 COUNTY AVENUE", "CITY": "SECAUCUS", "STATE": "NJ", "ZIP": "07094", "TELEPHONE": "201-207-3695", "ALT_PHONE": null, "TYPE": "NON ACUTE CARE HOSPITALS", "COUNTY": "HUDSON", "COUNTYFIPS": "34017", "ST_FIPS": "34", "COUNTRY": "US", "REGION": "NORTH EAST", "LATITUDE": 40.78411068, "LONGITUDE": -74.05856331, "STATE_ID": null, "NAICS_CODE": null, "OWNER": null, "TTL_STAFF": null, "BEDS": 9999999, "TRAUMA": null }, "geometry": { "type": "Point", "coordinates": [ -74.058563310291518, 40.784110679710345 ] } },
{ "type": "Feature", "properties": { "OBJECTID": 200, "NAME": "Robert Wood Johnson University Hospital Somerset", "ADDRESS": "110 REHILL AVE", "CITY": "SOMERVILLE", "STATE": "NJ", "ZIP": "08876", "TELEPHONE": "908-685-2200", "ALT_PHONE": null, "TYPE": "ACUTE CARE HOSPITALS", "COUNTY": "SOMERSET", "COUNTYFIPS": "34035", "ST_FIPS": "34", "COUNTRY": "US", "REGION": "CENTRAL WEST", "LATITUDE": 40.56782663, "LONGITUDE": -74.59505334000001, "STATE_ID": null, "NAICS_CODE": null, "OWNER": null, "TTL_STAFF": null, "BEDS": 355, "TRAUMA": null }, "geometry": { "type": "Point", "coordinates": [ -74.595053340317662, 40.567826629953942 ] } },
{ "type": "Feature", "properties": { "OBJECTID": 201, "NAME": "Shore Medical Center", "ADDRESS": "ONE EAST NEW YORK AVENUE", "CITY": "SOMMERS POINT", "STATE": "NJ", "ZIP": "08244", "TELEPHONE": "609-653-3500", "ALT_PHONE": "609-653-3545", "TYPE": "ACUTE CARE HOSPITALS", "COUNTY": "ATLANTIC", "COUNTYFIPS": "34001", "ST_FIPS": "34", "COUNTRY": "US", "REGION": "SOUTH", "LATITUDE": 39.31474, "LONGITUDE": -74.593612, "STATE_ID": null, "NAICS_CODE": null, "OWNER": null, "TTL_STAFF": null, "BEDS": 332, "TRAUMA": null }, "geometry": { "type": "Point", "coordinates": [ -74.593611999872408, 39.31473999980178 ] } },
{ "type": "Feature", "properties": { "OBJECTID": 202, "NAME": "Kennedy Memorial Hospitals UMC Stratford", "ADDRESS": "18 EAST LAUREL ROAD", "CITY": "STRATFORD", "STATE": "NJ", "ZIP": "08084", "TELEPHONE": "856-346-6000", "ALT_PHONE": "856-346-7816", "TYPE": "ACUTE CARE HOSPITALS", "COUNTY": "CAMDEN", "COUNTYFIPS": "34007", "ST_FIPS": "34", "COUNTRY": "US", "REGION": "SOUTH", "LATITUDE": 39.82818251, "LONGITUDE": -75.00850148000001, "STATE_ID": null, "NAICS_CODE": null, "OWNER": null, "TTL_STAFF": null, "BEDS": 236, "TRAUMA": null }, "geometry": { "type": "Point", "coordinates": [ -75.008501479561929, 39.828182509820962 ] } },
{ "type": "Feature", "properties": { "OBJECTID": 203, "NAME": "Overlook Medical Center", "ADDRESS": "99 BEAUVOIR AVENUE", "CITY": "SUMMIT", "STATE": "NJ", "ZIP": "07902-0220", "TELEPHONE": "908-522-5529", "ALT_PHONE": "908-522-2000X3383", "TYPE": "ACUTE CARE HOSPITALS", "COUNTY": "UNION", "COUNTYFIPS": "34039", "ST_FIPS": "34", "COUNTRY": "US", "REGION": "CENTRAL EAST", "LATITUDE": 40.712348, "LONGITUDE": -74.353963, "STATE_ID": null, "NAICS_CODE": null, "OWNER": null, "TTL_STAFF": null, "BEDS": 568, "TRAUMA": null }, "geometry": { "type": "Point", "coordinates": [ -74.353962999941288, 40.712348000032677 ] } },
{ "type": "Feature", "properties": { "OBJECTID": 204, "NAME": "Summit Oaks Hospital", "ADDRESS": "19 PROSPECT STREET", "CITY": "SUMMIT", "STATE": "NJ", "ZIP": "07901", "TELEPHONE": "908-522-7000", "ALT_PHONE": "800-753-5223", "TYPE": "NON ACUTE CARE HOSPITALS", "COUNTY": "UNION", "COUNTYFIPS": "34039", "ST_FIPS": "34", "COUNTRY": "US", "REGION": "CENTRAL EAST", "LATITUDE": 40.71384912, "LONGITUDE": -74.3629004, "STATE_ID": null, "NAICS_CODE": null, "OWNER": null, "TTL_STAFF": null, "BEDS": 9999999, "TRAUMA": null }, "geometry": { "type": "Point", "coordinates": [ -74.362900399599127, 40.713849119883832 ] } },
{ "type": "Feature", "properties": { "OBJECTID": 205, "NAME": "Saint Clare's Sussex SED", "ADDRESS": "20 WALNUT ST.", "CITY": "SUSSEX", "STATE": "NJ", "ZIP": "07461", "TELEPHONE": "973-702-2600", "ALT_PHONE": "973-702-2715", "TYPE": "SATELLITE EMERGENCY DEPARTMENTS", "COUNTY": "SUSSEX", "COUNTYFIPS": "34037", "ST_FIPS": "34", "COUNTRY": "US", "REGION": "NORTH WEST", "LATITUDE": 41.207017, "LONGITUDE": -74.603487, "STATE_ID": null, "NAICS_CODE": null, "OWNER": null, "TTL_STAFF": null, "BEDS": 106, "TRAUMA": null }, "geometry": { "type": "Point", "coordinates": [ -74.603486999536244, 41.207016999735394 ] } },
{ "type": "Feature", "properties": { "OBJECTID": 206, "NAME": "Holy Name Medical Center", "ADDRESS": "718 TEANECK ROAD", "CITY": "TEANECK", "STATE": "NJ", "ZIP": "07666", "TELEPHONE": "201-833-3000", "ALT_PHONE": null, "TYPE": "ACUTE CARE HOSPITALS", "COUNTY": "BERGEN", "COUNTYFIPS": "34003", "ST_FIPS": "34", "COUNTRY": "US", "REGION": "NORTH EAST", "LATITUDE": 40.882886, "LONGITUDE": -74.010473, "STATE_ID": null, "NAICS_CODE": null, "OWNER": null, "TTL_STAFF": null, "BEDS": 361, "TRAUMA": null }, "geometry": { "type": "Point", "coordinates": [ -74.010473000090997, 40.882885999857962 ] } },
{ "type": "Feature", "properties": { "OBJECTID": 207, "NAME": "HealthSouth Rehabilitation Hospital of Tinton Falls", "ADDRESS": "2 CENTER PLZ", "CITY": "TINTON FALLS", "STATE": "NJ", "ZIP": "07724", "TELEPHONE": "732-460-5320", "ALT_PHONE": "732-460-6741", "TYPE": "NON ACUTE CARE HOSPITALS", "COUNTY": "MONMOUTH", "COUNTYFIPS": "34025", "ST_FIPS": "34", "COUNTRY": "US", "REGION": "CENTRAL EAST", "LATITUDE": 40.28331901, "LONGITUDE": -74.07805408, "STATE_ID": null, "NAICS_CODE": null, "OWNER": null, "TTL_STAFF": null, "BEDS": 9999999, "TRAUMA": null }, "geometry": { "type": "Point", "coordinates": [ -74.078054079597564, 40.283319009958234 ] } },
{ "type": "Feature", "properties": { "OBJECTID": 208, "NAME": "The Rehabilitation Hospital of Tinton Falls", "ADDRESS": "2 CENTRE ST", "CITY": "TINTON FALLS", "STATE": "NJ", "ZIP": "07724", "TELEPHONE": "732-460-5320", "ALT_PHONE": null, "TYPE": "NON ACUTE CARE HOSPITALS", "COUNTY": "MONMOUTH", "COUNTYFIPS": "34025", "ST_FIPS": "34", "COUNTRY": "US", "REGION": "CENTRAL EAST", "LATITUDE": 40.28280518, "LONGITUDE": -74.07966697000001, "STATE_ID": null, "NAICS_CODE": null, "OWNER": null, "TTL_STAFF": null, "BEDS": 9999999, "TRAUMA": null }, "geometry": { "type": "Point", "coordinates": [ -74.079666970232793, 40.282805180428653 ] } },
{ "type": "Feature", "properties": { "OBJECTID": 209, "NAME": "Community Medical Center", "ADDRESS": "99 HIGHWAY 37 WEST", "CITY": "TOMS RIVER", "STATE": "NJ", "ZIP": "08755", "TELEPHONE": "732-557-8000", "ALT_PHONE": null, "TYPE": "ACUTE CARE HOSPITALS", "COUNTY": "OCEAN", "COUNTYFIPS": "34029", "ST_FIPS": "34", "COUNTRY": "US", "REGION": "CENTRAL EAST", "LATITUDE": 39.96402409, "LONGITUDE": -74.21598801, "STATE_ID": null, "NAICS_CODE": null, "OWNER": null, "TTL_STAFF": null, "BEDS": 636, "TRAUMA": null }, "geometry": { "type": "Point", "coordinates": [ -74.21598801019735, 39.96402408962247 ] } },
{ "type": "Feature", "properties": { "OBJECTID": 210, "NAME": "Ocean Health Initiatives - Toms River", "ADDRESS": "301 LAKEHURST ROAD", "CITY": "TOMS RIVER", "STATE": "NJ", "ZIP": "08755", "TELEPHONE": "732-552-0377", "ALT_PHONE": null, "TYPE": "FEDERALLY QUALIFIED HEALTH CENTERS", "COUNTY": "OCEAN", "COUNTYFIPS": "34029", "ST_FIPS": "34", "COUNTRY": "US", "REGION": "CENTRAL EAST", "LATITUDE": 39.95737592, "LONGITUDE": -74.21149249, "STATE_ID": null, "NAICS_CODE": null, "OWNER": null, "TTL_STAFF": null, "BEDS": 9999999, "TRAUMA": null }, "geometry": { "type": "Point", "coordinates": [ -74.211492490110032, 39.957375919899889 ] } },
{ "type": "Feature", "properties": { "OBJECTID": 211, "NAME": "Children's Specialized Hospital at Toms River", "ADDRESS": "94 STEVENS ROAD", "CITY": "TOMS RIVER", "STATE": "NJ", "ZIP": "08755", "TELEPHONE": "732-914-1100", "ALT_PHONE": "888-244-5373", "TYPE": "NON ACUTE CARE HOSPITALS", "COUNTY": "OCEAN", "COUNTYFIPS": "34029", "ST_FIPS": "34", "COUNTRY": "US", "REGION": "CENTRAL EAST", "LATITUDE": 40.00972119, "LONGITUDE": -74.22205212, "STATE_ID": null, "NAICS_CODE": null, "OWNER": null, "TTL_STAFF": null, "BEDS": 9999999, "TRAUMA": null }, "geometry": { "type": "Point", "coordinates": [ -74.222052119793261, 40.009721189835794 ] } },
{ "type": "Feature", "properties": { "OBJECTID": 212, "NAME": "Healthsouth Rehabilitation Hospital of Toms River", "ADDRESS": "14 HOSPITAL DRIVE", "CITY": "TOMS RIVER", "STATE": "NJ", "ZIP": "08755", "TELEPHONE": "732-244-3100", "ALT_PHONE": null, "TYPE": "NON ACUTE CARE HOSPITALS", "COUNTY": "OCEAN", "COUNTYFIPS": "34029", "ST_FIPS": "34", "COUNTRY": "US", "REGION": "CENTRAL EAST", "LATITUDE": 39.962292, "LONGITUDE": -74.21751138, "STATE_ID": null, "NAICS_CODE": null, "OWNER": null, "TTL_STAFF": null, "BEDS": 9999999, "TRAUMA": null }, "geometry": { "type": "Point", "coordinates": [ -74.217511379576052, 39.962291999967121 ] } },
{ "type": "Feature", "properties": { "OBJECTID": 213, "NAME": "Saint Barnabas Behavioral Health Center, Inc.", "ADDRESS": "1691 US HIGHWAY 9", "CITY": "TOMS RIVER", "STATE": "NJ", "ZIP": "08754", "TELEPHONE": "732-914-1688", "ALT_PHONE": null, "TYPE": "NON ACUTE CARE HOSPITALS", "COUNTY": "OCEAN", "COUNTYFIPS": "34029", "ST_FIPS": "34", "COUNTRY": "US", "REGION": "CENTRAL EAST", "LATITUDE": 40.011961, "LONGITUDE": -74.214611, "STATE_ID": null, "NAICS_CODE": null, "OWNER": null, "TTL_STAFF": null, "BEDS": 9999999, "TRAUMA": null }, "geometry": { "type": "Point", "coordinates": [ -74.214611000397326, 40.011960999671103 ] } },
{ "type": "Feature", "properties": { "OBJECTID": 214, "NAME": "Capital Health Regional Medical Center", "ADDRESS": "750 BRUNSWICK AVENUE", "CITY": "TRENTON", "STATE": "NJ", "ZIP": "08638", "TELEPHONE": "609-394-6000", "ALT_PHONE": null, "TYPE": "ACUTE CARE HOSPITALS", "COUNTY": "MERCER", "COUNTYFIPS": "34021", "ST_FIPS": "34", "COUNTRY": "US", "REGION": "CENTRAL WEST", "LATITUDE": 40.236134, "LONGITUDE": -74.751982, "STATE_ID": null, "NAICS_CODE": null, "OWNER": null, "TTL_STAFF": null, "BEDS": 269, "TRAUMA": "Level II" }, "geometry": { "type": "Point", "coordinates": [ -74.751982000527121, 40.236133999771546 ] } },
{ "type": "Feature", "properties": { "OBJECTID": 215, "NAME": "St. Francis Medical Center", "ADDRESS": "601 HAMILTON AVENUE", "CITY": "TRENTON", "STATE": "NJ", "ZIP": "08629", "TELEPHONE": "609-599-5000", "ALT_PHONE": null, "TYPE": "ACUTE CARE HOSPITALS", "COUNTY": "MERCER", "COUNTYFIPS": "34021", "ST_FIPS": "34", "COUNTRY": "US", "REGION": "CENTRAL WEST", "LATITUDE": 40.216408, "LONGITUDE": -74.74132, "STATE_ID": null, "NAICS_CODE": null, "OWNER": null, "TTL_STAFF": null, "BEDS": 240, "TRAUMA": null }, "geometry": { "type": "Point", "coordinates": [ -74.741319999641519, 40.216408000420678 ] } },
{ "type": "Feature", "properties": { "OBJECTID": 216, "NAME": "Chambers Manor Family Practice", "ADDRESS": "317 CHAMBERS STREET", "CITY": "TRENTON", "STATE": "NJ", "ZIP": "08609", "TELEPHONE": "609-278-5900", "ALT_PHONE": null, "TYPE": "FEDERALLY QUALIFIED HEALTH CENTERS", "COUNTY": "MERCER", "COUNTYFIPS": "34021", "ST_FIPS": "34", "COUNTRY": "US", "REGION": "CENTRAL WEST", "LATITUDE": 40.21919454, "LONGITUDE": -74.74456688, "STATE_ID": null, "NAICS_CODE": null, "OWNER": null, "TTL_STAFF": null, "BEDS": 9999999, "TRAUMA": null }, "geometry": { "type": "Point", "coordinates": [ -74.744566880169828, 40.219194540342031 ] } },
{ "type": "Feature", "properties": { "OBJECTID": 217, "NAME": "Ewing Health Center", "ADDRESS": "112 EWING ST", "CITY": "TRENTON", "STATE": "NJ", "ZIP": "08609", "TELEPHONE": "609-278-5900", "ALT_PHONE": null, "TYPE": "FEDERALLY QUALIFIED HEALTH CENTERS", "COUNTY": "MERCER", "COUNTYFIPS": "34021", "ST_FIPS": "34", "COUNTRY": "US", "REGION": "CENTRAL WEST", "LATITUDE": 40.22283389, "LONGITUDE": -74.75636281, "STATE_ID": null, "NAICS_CODE": null, "OWNER": null, "TTL_STAFF": null, "BEDS": 9999999, "TRAUMA": null }, "geometry": { "type": "Point", "coordinates": [ -74.756362810458072, 40.222833890316053 ] } },
{ "type": "Feature", "properties": { "OBJECTID": 218, "NAME": "Henry J. Austin Health Center, Inc (Warren St)", "ADDRESS": "321 N WARREN ST", "CITY": "TRENTON", "STATE": "NJ", "ZIP": "08618", "TELEPHONE": "609-278-5900", "ALT_PHONE": null, "TYPE": "FEDERALLY QUALIFIED HEALTH CENTERS", "COUNTY": "MERCER", "COUNTYFIPS": "34021", "ST_FIPS": "34", "COUNTRY": "US", "REGION": "CENTRAL WEST", "LATITUDE": 40.22528077, "LONGITUDE": -74.76521182, "STATE_ID": null, "NAICS_CODE": null, "OWNER": null, "TTL_STAFF": null, "BEDS": 9999999, "TRAUMA": null }, "geometry": { "type": "Point", "coordinates": [ -74.765211820179445, 40.225280769788789 ] } },
{ "type": "Feature", "properties": { "OBJECTID": 219, "NAME": "Trenton Psychiatric Hospital", "ADDRESS": "101 SULLIVAN WAY", "CITY": "TRENTON", "STATE": "NJ", "ZIP": "08601", "TELEPHONE": "609-633-1500", "ALT_PHONE": null, "TYPE": "NON ACUTE CARE HOSPITALS", "COUNTY": "MERCER", "COUNTYFIPS": "34021", "ST_FIPS": "34", "COUNTRY": "US", "REGION": "CENTRAL WEST", "LATITUDE": 40.24357048, "LONGITUDE": -74.80543625, "STATE_ID": null, "NAICS_CODE": null, "OWNER": null, "TTL_STAFF": null, "BEDS": 9999999, "TRAUMA": null }, "geometry": { "type": "Point", "coordinates": [ -74.80543624961048, 40.243570479726849 ] } },
{ "type": "Feature", "properties": { "OBJECTID": 220, "NAME": "Kennedy Memorial Hospitals UMC Washington Township", "ADDRESS": "435 HURFFVILLE-CROSS KEYS ROAD", "CITY": "TURNERSVILLE", "STATE": "NJ", "ZIP": "08012", "TELEPHONE": "856-582-2500", "ALT_PHONE": "856-582-2816", "TYPE": "ACUTE CARE HOSPITALS", "COUNTY": "GLOUCESTER", "COUNTYFIPS": "34015", "ST_FIPS": "34", "COUNTRY": "US", "REGION": "SOUTH", "LATITUDE": 39.735261, "LONGITUDE": -75.065535, "STATE_ID": null, "NAICS_CODE": null, "OWNER": null, "TTL_STAFF": null, "BEDS": 153, "TRAUMA": null }, "geometry": { "type": "Point", "coordinates": [ -75.065534999677894, 39.735261000072931 ] } },
{ "type": "Feature", "properties": { "OBJECTID": 221, "NAME": "Overlook-Union SED", "ADDRESS": "1000 GALLOPING HILL ROAD", "CITY": "UNION", "STATE": "NJ", "ZIP": "07083", "TELEPHONE": null, "ALT_PHONE": null, "TYPE": "SATELLITE EMERGENCY DEPARTMENTS", "COUNTY": "UNION", "COUNTYFIPS": "34039", "ST_FIPS": "34", "COUNTRY": "US", "REGION": "CENTRAL EAST", "LATITUDE": 40.67475511, "LONGITUDE": -74.26552305, "STATE_ID": null, "NAICS_CODE": null, "OWNER": null, "TTL_STAFF": null, "BEDS": 9999999, "TRAUMA": null }, "geometry": { "type": "Point", "coordinates": [ -74.265523049856085, 40.674755109575365 ] } },
{ "type": "Feature", "properties": { "OBJECTID": 222, "NAME": "NHCAC Health Center at Union City High School", "ADDRESS": "2500 KENNEDY BLVD", "CITY": "UNION CITY", "STATE": "NJ", "ZIP": "07087", "TELEPHONE": "201-553-7888", "ALT_PHONE": null, "TYPE": "FEDERALLY QUALIFIED HEALTH CENTERS", "COUNTY": "HUDSON", "COUNTYFIPS": "34017", "ST_FIPS": "34", "COUNTRY": "US", "REGION": "NORTH EAST", "LATITUDE": 40.77057574, "LONGITUDE": -74.03718792, "STATE_ID": null, "NAICS_CODE": null, "OWNER": null, "TTL_STAFF": null, "BEDS": 9999999, "TRAUMA": null }, "geometry": { "type": "Point", "coordinates": [ -74.037187920189467, 40.770575739954133 ] } },
{ "type": "Feature", "properties": { "OBJECTID": 223, "NAME": "NHCAC Union City", "ADDRESS": "714 31ST STREET", "CITY": "UNION CITY", "STATE": "NJ", "ZIP": "07087", "TELEPHONE": "201-863-7077", "ALT_PHONE": null, "TYPE": "FEDERALLY QUALIFIED HEALTH CENTERS", "COUNTY": "HUDSON", "COUNTYFIPS": "34017", "ST_FIPS": "34", "COUNTRY": "US", "REGION": "NORTH EAST", "LATITUDE": 40.77259512, "LONGITUDE": -74.03157461000001, "STATE_ID": null, "NAICS_CODE": null, "OWNER": null, "TTL_STAFF": null, "BEDS": 9999999, "TRAUMA": null }, "geometry": { "type": "Point", "coordinates": [ -74.031574609613031, 40.772595120089541 ] } },
{ "type": "Feature", "properties": { "OBJECTID": 224, "NAME": "North Hudson Community Action Corp Health Center", "ADDRESS": "800 31ST STREET", "CITY": "UNION CITY", "STATE": "NJ", "ZIP": "07087", "TELEPHONE": "201-210-0100", "ALT_PHONE": null, "TYPE": "FEDERALLY QUALIFIED HEALTH CENTERS", "COUNTY": "HUDSON", "COUNTYFIPS": "34017", "ST_FIPS": "34", "COUNTRY": "US", "REGION": "NORTH EAST", "LATITUDE": 40.77322188, "LONGITUDE": -74.03287041, "STATE_ID": null, "NAICS_CODE": null, "OWNER": null, "TTL_STAFF": null, "BEDS": 9999999, "TRAUMA": null }, "geometry": { "type": "Point", "coordinates": [ -74.032870410152441, 40.77322187970433 ] } },
{ "type": "Feature", "properties": { "OBJECTID": 225, "NAME": "Inspira Medical Center Vineland", "ADDRESS": "1505 W. SHERMAN AVENUE", "CITY": "VINELAND", "STATE": "NJ", "ZIP": "08360", "TELEPHONE": "856-641-8000", "ALT_PHONE": null, "TYPE": "ACUTE CARE HOSPITALS", "COUNTY": "CUMBERLAND", "COUNTYFIPS": "34011", "ST_FIPS": "34", "COUNTRY": "US", "REGION": "SOUTH", "LATITUDE": 39.445359, "LONGITUDE": -75.058832, "STATE_ID": null, "NAICS_CODE": null, "OWNER": null, "TTL_STAFF": null, "BEDS": 262, "TRAUMA": null }, "geometry": { "type": "Point", "coordinates": [ -75.058832000488792, 39.445359000235761 ] } },
{ "type": "Feature", "properties": { "OBJECTID": 226, "NAME": "CompleteCare Vineland RiteCare", "ADDRESS": "215 STHY 47", "CITY": "VINELAND", "STATE": "NJ", "ZIP": "08360", "TELEPHONE": null, "ALT_PHONE": null, "TYPE": "FEDERALLY QUALIFIED HEALTH CENTERS", "COUNTY": "CUMBERLAND", "COUNTYFIPS": "34011", "ST_FIPS": "34", "COUNTRY": "US", "REGION": "SOUTH", "LATITUDE": 39.49048856, "LONGITUDE": -75.04280113, "STATE_ID": null, "NAICS_CODE": null, "OWNER": null, "TTL_STAFF": null, "BEDS": 9999999, "TRAUMA": null }, "geometry": { "type": "Point", "coordinates": [ -75.042801129712217, 39.490488559568789 ] } },
{ "type": "Feature", "properties": { "OBJECTID": 227, "NAME": "Vineland Medical and Dental Center", "ADDRESS": "319 LANDIS AVENUE", "CITY": "VINELAND", "STATE": "NJ", "ZIP": "08360", "TELEPHONE": "856-451-4700", "ALT_PHONE": null, "TYPE": "FEDERALLY QUALIFIED HEALTH CENTERS", "COUNTY": "CUMBERLAND", "COUNTYFIPS": "34011", "ST_FIPS": "34", "COUNTRY": "US", "REGION": "SOUTH", "LATITUDE": 39.4863781, "LONGITUDE": -75.03045004000001, "STATE_ID": null, "NAICS_CODE": null, "OWNER": null, "TTL_STAFF": null, "BEDS": 9999999, "TRAUMA": null }, "geometry": { "type": "Point", "coordinates": [ -75.030450040480233, 39.486378100373663 ] } },
{ "type": "Feature", "properties": { "OBJECTID": 228, "NAME": "Vineland Women's Health Center", "ADDRESS": "484 S. BREWSTER RD", "CITY": "VINELAND", "STATE": "NJ", "ZIP": "08360", "TELEPHONE": "856-451-4700", "ALT_PHONE": null, "TYPE": "FEDERALLY QUALIFIED HEALTH CENTERS", "COUNTY": "CUMBERLAND", "COUNTYFIPS": "34011", "ST_FIPS": "34", "COUNTRY": "US", "REGION": "SOUTH", "LATITUDE": 39.5155195, "LONGITUDE": -74.97212363, "STATE_ID": null, "NAICS_CODE": null, "OWNER": null, "TTL_STAFF": null, "BEDS": 9999999, "TRAUMA": null }, "geometry": { "type": "Point", "coordinates": [ -74.97212363008083, 39.515519500223327 ] } },
{ "type": "Feature", "properties": { "OBJECTID": 229, "NAME": "HealthSouth Rehabilitation Hospital of Vineland", "ADDRESS": "1237 W SHERMAN AVE", "CITY": "VINELAND", "STATE": "NJ", "ZIP": "08360", "TELEPHONE": null, "ALT_PHONE": null, "TYPE": "NON ACUTE CARE HOSPITALS", "COUNTY": "CUMBERLAND", "COUNTYFIPS": "34011", "ST_FIPS": "34", "COUNTRY": "US", "REGION": "SOUTH", "LATITUDE": 39.44716872, "LONGITUDE": -75.0521912, "STATE_ID": null, "NAICS_CODE": null, "OWNER": null, "TTL_STAFF": null, "BEDS": 9999999, "TRAUMA": null }, "geometry": { "type": "Point", "coordinates": [ -75.052191200390226, 39.447168719848683 ] } },
{ "type": "Feature", "properties": { "OBJECTID": 230, "NAME": "Rehabilitation Hospital of South Jersey", "ADDRESS": "1237 WEST SHERMAN AVENUE", "CITY": "VINELAND", "STATE": "NJ", "ZIP": "08360", "TELEPHONE": "856-696-7100", "ALT_PHONE": null, "TYPE": "NON ACUTE CARE HOSPITALS", "COUNTY": "CUMBERLAND", "COUNTYFIPS": "34011", "ST_FIPS": "34", "COUNTRY": "US", "REGION": "SOUTH", "LATITUDE": 39.44511397, "LONGITUDE": -75.05259683, "STATE_ID": null, "NAICS_CODE": null, "OWNER": null, "TTL_STAFF": null, "BEDS": 9999999, "TRAUMA": null }, "geometry": { "type": "Point", "coordinates": [ -75.052596829659564, 39.445113970042648 ] } },
{ "type": "Feature", "properties": { "OBJECTID": 231, "NAME": "Virtua West Jersey Hospital - Voorhees", "ADDRESS": "101 CARNIE BOULEVARD", "CITY": "VOORHEES", "STATE": "NJ", "ZIP": "08043", "TELEPHONE": "856-325-3000", "ALT_PHONE": null, "TYPE": "ACUTE CARE HOSPITALS", "COUNTY": "CAMDEN", "COUNTYFIPS": "34007", "ST_FIPS": "34", "COUNTRY": "US", "REGION": "SOUTH", "LATITUDE": 39.864191, "LONGITUDE": -74.95889, "STATE_ID": null, "NAICS_CODE": null, "OWNER": null, "TTL_STAFF": null, "BEDS": 200, "TRAUMA": null }, "geometry": { "type": "Point", "coordinates": [ -74.958890000003009, 39.864191000400226 ] } },
{ "type": "Feature", "properties": { "OBJECTID": 232, "NAME": "St. Joseph's Wayne Hospital", "ADDRESS": "224 HAMBURG TPKE", "CITY": "WAYNE", "STATE": "NJ", "ZIP": "07470", "TELEPHONE": "973-942-6900", "ALT_PHONE": "973-956-3300", "TYPE": "ACUTE CARE HOSPITALS", "COUNTY": "PASSAIC", "COUNTYFIPS": "34031", "ST_FIPS": "34", "COUNTRY": "US", "REGION": "NORTH WEST", "LATITUDE": 40.946882, "LONGITUDE": -74.203132, "STATE_ID": null, "NAICS_CODE": null, "OWNER": null, "TTL_STAFF": null, "BEDS": 229, "TRAUMA": null }, "geometry": { "type": "Point", "coordinates": [ -74.203131999727091, 40.946882000393764 ] } },
{ "type": "Feature", "properties": { "OBJECTID": 233, "NAME": "Kindred Hospital New Jersey - Wayne", "ADDRESS": "224 HAMBURG TPKE", "CITY": "WAYNE", "STATE": "NJ", "ZIP": "07470", "TELEPHONE": null, "ALT_PHONE": null, "TYPE": "NON ACUTE CARE HOSPITALS", "COUNTY": "PASSAIC", "COUNTYFIPS": "34031", "ST_FIPS": "34", "COUNTRY": "US", "REGION": "NORTH WEST", "LATITUDE": 40.94894588, "LONGITUDE": -74.20784368, "STATE_ID": null, "NAICS_CODE": null, "OWNER": null, "TTL_STAFF": null, "BEDS": 9999999, "TRAUMA": null }, "geometry": { "type": "Point", "coordinates": [ -74.207843679551047, 40.948945879697632 ] } },
{ "type": "Feature", "properties": { "OBJECTID": 234, "NAME": "Metropolitan Family Health Center", "ADDRESS": "5300 BERGENLINE AVE", "CITY": "WEST NEW YORK", "STATE": "NJ", "ZIP": "07093", "TELEPHONE": "201-478-5851", "ALT_PHONE": null, "TYPE": "FEDERALLY QUALIFIED HEALTH CENTERS", "COUNTY": "HUDSON", "COUNTYFIPS": "34017", "ST_FIPS": "34", "COUNTRY": "US", "REGION": "NORTH EAST", "LATITUDE": 40.78461926, "LONGITUDE": -74.01957627, "STATE_ID": null, "NAICS_CODE": null, "OWNER": null, "TTL_STAFF": null, "BEDS": 9999999, "TRAUMA": null }, "geometry": { "type": "Point", "coordinates": [ -74.01957627048948, 40.784619260234038 ] } },
{ "type": "Feature", "properties": { "OBJECTID": 235, "NAME": "NHCAC Health Center", "ADDRESS": "5301 BROADWAY", "CITY": "WEST NEW YORK", "STATE": "NJ", "ZIP": "07093", "TELEPHONE": "201-866-9320", "ALT_PHONE": null, "TYPE": "FEDERALLY QUALIFIED HEALTH CENTERS", "COUNTY": "HUDSON", "COUNTYFIPS": "34017", "ST_FIPS": "34", "COUNTRY": "US", "REGION": "NORTH EAST", "LATITUDE": 40.78227787, "LONGITUDE": -74.01444725, "STATE_ID": null, "NAICS_CODE": null, "OWNER": null, "TTL_STAFF": null, "BEDS": 9999999, "TRAUMA": null }, "geometry": { "type": "Point", "coordinates": [ -74.014447249579362, 40.782277870341325 ] } },
{ "type": "Feature", "properties": { "OBJECTID": 236, "NAME": "NHCAC Mobile Unit", "ADDRESS": "5301 BROADWAY", "CITY": "WEST NEW YORK", "STATE": "NJ", "ZIP": "07093", "TELEPHONE": "201-866-9320", "ALT_PHONE": null, "TYPE": "FEDERALLY QUALIFIED HEALTH CENTERS", "COUNTY": "HUDSON", "COUNTYFIPS": "34017", "ST_FIPS": "34", "COUNTRY": "US", "REGION": "NORTH EAST", "LATITUDE": 40.78227787, "LONGITUDE": -74.01444725, "STATE_ID": null, "NAICS_CODE": null, "OWNER": null, "TTL_STAFF": null, "BEDS": 9999999, "TRAUMA": null }, "geometry": { "type": "Point", "coordinates": [ -74.014447249579362, 40.782277870341325 ] } },
{ "type": "Feature", "properties": { "OBJECTID": 237, "NAME": "Kessler Institute for Rehabilitation - West Facility", "ADDRESS": "1199 PLEASANT VALLEY WAY", "CITY": "WEST ORANGE", "STATE": "NJ", "ZIP": "07052", "TELEPHONE": "973-731-3600", "ALT_PHONE": null, "TYPE": "NON ACUTE CARE HOSPITALS", "COUNTY": "ESSEX", "COUNTYFIPS": "34013", "ST_FIPS": "34", "COUNTRY": "US", "REGION": "NORTH EAST", "LATITUDE": 40.78571, "LONGITUDE": -74.276524, "STATE_ID": null, "NAICS_CODE": null, "OWNER": null, "TTL_STAFF": null, "BEDS": 9999999, "TRAUMA": null }, "geometry": { "type": "Point", "coordinates": [ -74.276524000411399, 40.78570999999522 ] } },
{ "type": "Feature", "properties": { "OBJECTID": 238, "NAME": "Hampton Behavioral Health Center", "ADDRESS": "650 RANCOCAS ROAD", "CITY": "WESTAMPTON TOWNSHIP", "STATE": "NJ", "ZIP": "08060", "TELEPHONE": "800-603-6767", "ALT_PHONE": "609-267-7000", "TYPE": "NON ACUTE CARE HOSPITALS", "COUNTY": "BURLINGTON", "COUNTYFIPS": "34005", "ST_FIPS": "34", "COUNTRY": "US", "REGION": "SOUTH", "LATITUDE": 40.008226, "LONGITUDE": -74.846559, "STATE_ID": null, "NAICS_CODE": null, "OWNER": null, "TTL_STAFF": null, "BEDS": 9999999, "TRAUMA": null }, "geometry": { "type": "Point", "coordinates": [ -74.846558999926529, 40.008226000387445 ] } },
{ "type": "Feature", "properties": { "OBJECTID": 239, "NAME": "Hackensack UMC at Pascack Valley", "ADDRESS": "250 OLD HOOK ROAD", "CITY": "WESTWOOD", "STATE": "NJ", "ZIP": "07675-3181", "TELEPHONE": null, "ALT_PHONE": null, "TYPE": "ACUTE CARE HOSPITALS", "COUNTY": "BERGEN", "COUNTYFIPS": "34003", "ST_FIPS": "34", "COUNTRY": "US", "REGION": "NORTH EAST", "LATITUDE": 40.98549872, "LONGITUDE": -74.01484491, "STATE_ID": null, "NAICS_CODE": null, "OWNER": null, "TTL_STAFF": null, "BEDS": 9999999, "TRAUMA": null }, "geometry": { "type": "Point", "coordinates": [ -74.014844909822941, 40.985498719624736 ] } },
{ "type": "Feature", "properties": { "OBJECTID": 240, "NAME": "Lourdes Medical Center of Burlington County", "ADDRESS": "218 SUNSET ROAD", "CITY": "WILLINGBORO", "STATE": "NJ", "ZIP": "08046", "TELEPHONE": "609-835-2900", "ALT_PHONE": null, "TYPE": "ACUTE CARE HOSPITALS", "COUNTY": "BURLINGTON", "COUNTYFIPS": "34005", "ST_FIPS": "34", "COUNTRY": "US", "REGION": "SOUTH", "LATITUDE": 40.046544, "LONGITUDE": -74.880849, "STATE_ID": null, "NAICS_CODE": null, "OWNER": null, "TTL_STAFF": null, "BEDS": 9999999, "TRAUMA": null }, "geometry": { "type": "Point", "coordinates": [ -74.880849000449416, 40.046544000184717 ] } },
{ "type": "Feature", "properties": { "OBJECTID": 241, "NAME": "Lourdes Specialty Hospital of Southern New Jersey", "ADDRESS": "218 SUNSET RD", "CITY": "WILLINGBORO", "STATE": "NJ", "ZIP": "08046", "TELEPHONE": null, "ALT_PHONE": null, "TYPE": "NON ACUTE CARE HOSPITALS", "COUNTY": "BURLINGTON", "COUNTYFIPS": "34005", "ST_FIPS": "34", "COUNTRY": "US", "REGION": "SOUTH", "LATITUDE": 40.04822726, "LONGITUDE": -74.88609238, "STATE_ID": null, "NAICS_CODE": null, "OWNER": null, "TTL_STAFF": null, "BEDS": 9999999, "TRAUMA": null }, "geometry": { "type": "Point", "coordinates": [ -74.886092380384852, 40.048227260445408 ] } },
{ "type": "Feature", "properties": { "OBJECTID": 242, "NAME": "Inspira Medical Center Woodbury", "ADDRESS": "509 NORTH BROAD STREET", "CITY": "WOODBURY", "STATE": "NJ", "ZIP": "08096", "TELEPHONE": "856-845-0100", "ALT_PHONE": null, "TYPE": "ACUTE CARE HOSPITALS", "COUNTY": "GLOUCESTER", "COUNTYFIPS": "34015", "ST_FIPS": "34", "COUNTRY": "US", "REGION": "SOUTH", "LATITUDE": 39.84380717, "LONGITUDE": -75.14945948, "STATE_ID": null, "NAICS_CODE": null, "OWNER": null, "TTL_STAFF": null, "BEDS": 305, "TRAUMA": null }, "geometry": { "type": "Point", "coordinates": [ -75.149459480326229, 39.843807170243338 ] } },
{ "type": "Feature", "properties": { "OBJECTID": 243, "NAME": "Christian Healthcare Center - Ramapo Ridge Psychiatric Hospital", "ADDRESS": "301 SICOMAC AVENUE", "CITY": "WYCKOFF", "STATE": "NJ", "ZIP": "07481", "TELEPHONE": "201-848-5200", "ALT_PHONE": null, "TYPE": "NON ACUTE CARE HOSPITALS", "COUNTY": "BERGEN", "COUNTYFIPS": "34003", "ST_FIPS": "34", "COUNTRY": "US", "REGION": "NORTH EAST", "LATITUDE": 40.98136, "LONGITUDE": -74.17176, "STATE_ID": null, "NAICS_CODE": null, "OWNER": null, "TTL_STAFF": null, "BEDS": 9999999, "TRAUMA": null }, "geometry": { "type": "Point", "coordinates": [ -74.171759999853506, 40.981360000356325 ] } },
{ "type": "Feature", "properties": { "OBJECTID": 244, "NAME": "Ramapo Ridge Psychiatric Hospital", "ADDRESS": "301 CEDAR HILL AVE", "CITY": "WYCKOFF", "STATE": "NJ", "ZIP": "07481", "TELEPHONE": null, "ALT_PHONE": null, "TYPE": "NON ACUTE CARE HOSPITALS", "COUNTY": "BERGEN", "COUNTYFIPS": "34003", "ST_FIPS": "34", "COUNTRY": "US", "REGION": "NORTH EAST", "LATITUDE": 40.99705372, "LONGITUDE": -74.15566127, "STATE_ID": null, "NAICS_CODE": null, "OWNER": null, "TTL_STAFF": null, "BEDS": 9999999, "TRAUMA": null }, "geometry": { "type": "Point", "coordinates": [ -74.155661270116141, 40.997053720333859 ] } }
]
}
